{"coordinateSystem":"GCJ-02","facilities":[{"address":"马陆镇宝安公路包装城7号楼","category":"commerce.big_box_retail","district":"嘉定区","latitude":31.326777,"longitude":121.267614,"name":"麦德龙(嘉定商场店)"},{"address":"真北路1425号","category":"commerce.big_box_retail","district":"普陀区","latitude":31.243047,"longitude":121.38521,"name":"麦德龙(普陀店)"},{"address":"崧文南路177号崧泽华城生活汇B1层","category":"commerce.big_box_retail","district":"青浦区","latitude":31.146605,"longitude":121.145936,"name":"麦德龙(青浦万渡汇店)"},{"address":"城河路330号易家中心2号楼1层","category":"commerce.big_box_retail","district":"金山区","latitude":30.732373,"longitude":121.32737,"name":"麦德龙(上海金山商场)"},{"address":"顾戴路80号","category":"commerce.big_box_retail","district":"闵行区","latitude":31.147765,"longitude":121.407472,"name":"麦德龙(上海闵行商场)"},{"address":"花木镇白杨路383号(龙阳路地铁站9号口旁)","category":"commerce.big_box_retail","district":"浦东新区","latitude":31.204958,"longitude":121.557188,"name":"麦德龙(上海浦东店)"},{"address":"光星路1399号五龙商业广场F1层","category":"commerce.big_box_retail","district":"松江区","latitude":31.056003,"longitude":121.240574,"name":"麦德龙(五龙商业广场店)"},{"address":"利川路228号","category":"commerce.big_box_retail","district":"浦东新区","latitude":31.207646,"longitude":121.680806,"name":"山姆会员商店(浦东东店)"},{"address":"赵巷镇业锦路483弄1-26号","category":"commerce.big_box_retail","district":"青浦区","latitude":31.12628,"longitude":121.226897,"name":"山姆会员商店(青浦店)"},{"address":"大场镇聚丰园路205号聚丰购物广场F2层","category":"commerce.big_box_retail","district":"宝山区","latitude":31.315366,"longitude":121.382483,"name":"山姆会员商店(上海宝山店)"},{"address":"惠亚路117号","category":"commerce.big_box_retail","district":"嘉定区","latitude":31.300118,"longitude":121.293168,"name":"山姆会员商店(上海嘉定店)"},{"address":"高科西路2110号","category":"commerce.big_box_retail","district":"浦东新区","latitude":31.186563,"longitude":121.535231,"name":"山姆会员商店(上海浦东店)"},{"address":"曹杨路1266号","category":"commerce.big_box_retail","district":"普陀区","latitude":31.248545,"longitude":121.409225,"name":"山姆会员商店(上海真如环宇城MAX店)"},{"address":"万安街599号","category":"commerce.big_box_retail","district":"浦东新区","latitude":31.296858,"longitude":121.61711,"name":"山姆会员商店(外高桥保税区店)"},{"address":"临御路550号","category":"commerce.big_box_retail","district":"浦东新区","latitude":31.159772,"longitude":121.562184,"name":"宜家家居(上海北蔡商场)"},{"address":"淞沪路8号","category":"commerce.large_mall","district":"杨浦区","latitude":31.301529,"longitude":121.515615,"name":"百联又一城购物中心"},{"address":"南京西路1266号","category":"commerce.large_mall","district":"静安区","latitude":31.227845,"longitude":121.453484,"name":"上海恒隆广场"},{"address":"西藏北路166号","category":"commerce.large_mall","district":"静安区","latitude":31.243689,"longitude":121.4721,"name":"上海静安大悦城"},{"address":"西藏中路268号(人民广场地铁站15号口旁)","category":"commerce.large_mall","district":"黄浦区","latitude":31.232454,"longitude":121.476607,"name":"上海来福士广场"},{"address":"吴中路1599号(紫藤路地铁站1号口步行210米)","category":"commerce.large_mall","district":"闵行区","latitude":31.170352,"longitude":121.369015,"name":"上海万象城"},{"address":"淮海中路300号(一大会址·黄陂南路地铁站2号口旁)","category":"commerce.large_mall","district":"黄浦区","latitude":31.223433,"longitude":121.473582,"name":"上海k11购物艺术中心"},{"address":"石门一路288号","category":"commerce.large_mall","district":"静安区","latitude":31.228926,"longitude":121.463104,"name":"兴业太古汇"},{"address":"中国(上海)自由贸易试验区陆家嘴西路168号","category":"commerce.large_mall","district":"浦东新区","latitude":31.236752,"longitude":121.49917,"name":"正大广场"},{"address":"闵行区伟业路881号","category":"culture.art_gallery","district":"闵行区","latitude":31.116792,"longitude":121.40062,"name":"蔡兵美术馆"},{"address":"松江区中山中路458号","category":"culture.art_gallery","district":"松江区","latitude":31.007227,"longitude":121.227625,"name":"程十发艺术馆"},{"address":"崇明区崇明大道7897号","category":"culture.art_gallery","district":"崇明区","latitude":31.619561,"longitude":121.428193,"name":"崇明美术馆"},{"address":"黄浦区福州路655号2楼","category":"culture.art_gallery","district":"黄浦区","latitude":31.23225,"longitude":121.478545,"name":"春美术馆"},{"address":"金山区枫泾镇青枫街49号","category":"culture.art_gallery","district":"金山区","latitude":30.883876,"longitude":121.011946,"name":"丁聪美术馆"},{"address":"杨浦区长阳路1687号","category":"culture.art_gallery","district":"杨浦区","latitude":31.271229,"longitude":121.534465,"name":"敦煌当代美术馆"},{"address":"浦东新区川沙路1058号","category":"culture.art_gallery","district":"浦东新区","latitude":31.207599,"longitude":121.612023,"name":"海派连环画艺术馆"},{"address":"杨浦区黄兴路1818号11F","category":"culture.art_gallery","district":"杨浦区","latitude":31.292126,"longitude":121.520083,"name":"鸿一美术馆"},{"address":"黄浦区福佑路199号","category":"culture.art_gallery","district":"黄浦区","latitude":31.228361,"longitude":121.49279,"name":"胡问遂艺术馆"},{"address":"静安区延安中路955弄、巨鹿路700号","category":"culture.art_gallery","district":"静安区","latitude":31.297988,"longitude":121.412331,"name":"华山艺术馆"},{"address":"嘉定区大治路39号","category":"culture.art_gallery","district":"嘉定区","latitude":31.380474,"longitude":121.314487,"name":"嘉源海美术馆"},{"address":"长宁区延安西路1609号","category":"culture.art_gallery","district":"长宁区","latitude":31.209504,"longitude":121.419424,"name":"刘海粟美术馆"},{"address":"普陀区铜川路1869号","category":"culture.art_gallery","district":"普陀区","latitude":31.2528,"longitude":121.384883,"name":"刘海粟美术馆(分馆)"},{"address":"杨浦区惠民路379弄9、11号","category":"culture.art_gallery","district":"杨浦区","latitude":31.256016,"longitude":121.515494,"name":"刘小晴艺术馆"},{"address":"徐汇区龙腾大道3398号","category":"culture.art_gallery","district":"徐汇区","latitude":31.183954,"longitude":121.464761,"name":"龙美术馆（西岸馆）"},{"address":"嘉定区东大街358号","category":"culture.art_gallery","district":"嘉定区","latitude":31.385963,"longitude":121.25346,"name":"陆俨少艺术院"},{"address":"静安区永和东路436号","category":"culture.art_gallery","district":"静安区","latitude":31.290729,"longitude":121.458399,"name":"明当代美术馆"},{"address":"浦东新区滨江大道2777号","category":"culture.art_gallery","district":"浦东新区","latitude":31.238115,"longitude":121.49631,"name":"浦东美术馆"},{"address":"浦东新区世纪大道100号29楼","category":"culture.art_gallery","district":"浦东新区","latitude":31.234807,"longitude":121.507515,"name":"浦东云间美术馆"},{"address":"虹口区四川北路939号1613单元","category":"culture.art_gallery","district":"虹口区","latitude":31.249961,"longitude":121.483181,"name":"趣看美术馆"},{"address":"闵行区澄建路600号","category":"culture.art_gallery","district":"闵行区","latitude":31.241209,"longitude":121.487612,"name":"上海半岛美术馆"},{"address":"闵行区漕宝路3055号","category":"culture.art_gallery","district":"闵行区","latitude":31.158382,"longitude":121.357859,"name":"上海宝龙美术馆"},{"address":"宝山区黄海路888号","category":"culture.art_gallery","district":"宝山区","latitude":31.356722,"longitude":121.366633,"name":"上海宝山区龙现代美术馆"},{"address":"黄浦区西藏南路765号1503室","category":"culture.art_gallery","district":"黄浦区","latitude":31.219531,"longitude":121.484024,"name":"上海驰翰美术馆"},{"address":"静安区延长路149号","category":"culture.art_gallery","district":"静安区","latitude":31.34402,"longitude":121.43425,"name":"上海大学美术馆"},{"address":"黄浦区苗江路678号","category":"culture.art_gallery","district":"黄浦区","latitude":31.201041,"longitude":121.498406,"name":"上海当代艺术博物馆"},{"address":"虹口区多伦路27号","category":"culture.art_gallery","district":"虹口区","latitude":31.261886,"longitude":121.483076,"name":"上海多伦现代美术馆"},{"address":"黄浦区中山东二路600号","category":"culture.art_gallery","district":"黄浦区","latitude":31.226885,"longitude":121.49797,"name":"上海复星艺术中心"},{"address":"松江区泗泾镇泗陈公路 3388 弄 16 号","category":"culture.art_gallery","district":"松江区","latitude":31.114876,"longitude":121.225844,"name":"上海国稷美术馆"},{"address":"闵行区新镇路1536号","category":"culture.art_gallery","district":"闵行区","latitude":31.160573,"longitude":121.358258,"name":"上海海派艺术馆"},{"address":"嘉定区博乐路70号","category":"culture.art_gallery","district":"嘉定区","latitude":31.37866,"longitude":121.256377,"name":"上海韩天衡美术馆"},{"address":"浦东新区祖冲之路2277弄1号","category":"culture.art_gallery","district":"浦东新区","latitude":31.211836,"longitude":121.627078,"name":"上海昊美术馆"},{"address":"虹口区同心路1号3幢3109室","category":"culture.art_gallery","district":"虹口区","latitude":31.266569,"longitude":121.479085,"name":"上海虹口青藤美术馆"},{"address":"长宁区仙霞路650号","category":"culture.art_gallery","district":"长宁区","latitude":31.205925,"longitude":121.387754,"name":"上海虹桥当代美术馆"},{"address":"嘉定区江桥镇景域大道88号13幢","category":"culture.art_gallery","district":"嘉定区","latitude":31.229681,"longitude":121.317457,"name":"上海嘉定区北虹桥美术馆"},{"address":"嘉定区南翔镇解放街230号檀园内(西南门)","category":"culture.art_gallery","district":"嘉定区","latitude":31.375566,"longitude":121.265276,"name":"上海嘉定十方画院"},{"address":"闵行区东川路800号","category":"culture.art_gallery","district":"闵行区","latitude":31.021034,"longitude":121.428951,"name":"上海交通大学程及美术馆"},{"address":"宝山区罗新东路800号5幢1、2楼","category":"culture.art_gallery","district":"宝山区","latitude":31.430275,"longitude":121.367075,"name":"上海湫光美术馆"},{"address":"闵行区甬虹路88号","category":"culture.art_gallery","district":"闵行区","latitude":31.19007,"longitude":121.315813,"name":"上海金臣亦飞鸣美术馆"},{"address":"金山区卫清西路55号2楼","category":"culture.art_gallery","district":"金山区","latitude":30.730236,"longitude":121.351314,"name":"上海金山区海鸥美术馆"},{"address":"静安区北京西路1394号","category":"culture.art_gallery","district":"静安区","latitude":31.228222,"longitude":121.448867,"name":"上海静安毕加索艺术馆"},{"address":"静安区恒丰北路100号26楼","category":"culture.art_gallery","district":"静安区","latitude":31.255274,"longitude":121.451405,"name":"上海静安大风堂美术馆"},{"address":"黄浦区中山东一路27号6层、黄浦区中山东一路18号2层、黄浦区北京东路230号1层","category":"culture.art_gallery","district":"黄浦区","latitude":31.240351,"longitude":121.490188,"name":"上海久事美术馆"},{"address":"浦东新区上南路205号","category":"culture.art_gallery","district":"浦东新区","latitude":31.184338,"longitude":121.49474,"name":"上海美术馆"},{"address":"宝山区上大路路99号","category":"culture.art_gallery","district":"宝山区","latitude":31.312931,"longitude":121.393582,"name":"上海美术学院美术馆"},{"address":"黄浦区威海路48号5-6F","category":"culture.art_gallery","district":"黄浦区","latitude":31.228449,"longitude":121.470334,"name":"上海民生现代美术馆"},{"address":"闵行区黎明路88号","category":"culture.art_gallery","district":"闵行区","latitude":31.12956,"longitude":121.3798,"name":"上海闵行区美博美术馆"},{"address":"徐汇区复兴中路1199号A座B1层","category":"culture.art_gallery","district":"徐汇区","latitude":31.212709,"longitude":121.458872,"name":"上海明圆美术馆"},{"address":"闵行区区吴中路路1588号","category":"culture.art_gallery","district":"闵行区","latitude":31.239731,"longitude":121.500114,"name":"上海明珠美术馆"},{"address":"浦东新区红枫路135号","category":"culture.art_gallery","district":"浦东新区","latitude":31.24476,"longitude":121.588967,"name":"上海浦东碧云美术馆"},{"address":"浦东新区祝桥镇江镇西街71号3幢","category":"culture.art_gallery","district":"浦东新区","latitude":31.17147,"longitude":121.743609,"name":"上海浦东林隐美术馆"},{"address":"浦东新区沈梅路123弄57号","category":"culture.art_gallery","district":"浦东新区","latitude":31.088963,"longitude":121.575438,"name":"上海浦东新区库伯美术馆"},{"address":"浦东新区民唐路202号2幢","category":"culture.art_gallery","district":"浦东新区","latitude":31.25742,"longitude":121.645541,"name":"上海浦东新区联明美术馆"},{"address":"浦东新区银城路66号2层206单元、207a单元、207b单元、208单元。","category":"culture.art_gallery","district":"浦东新区","latitude":31.241257,"longitude":121.509423,"name":"上海浦东新区叁柒贰叁美术馆"},{"address":"浦东新区陈春路109号一楼106B-1-2铺与115A铺","category":"culture.art_gallery","district":"浦东新区","latitude":31.112355,"longitude":121.597872,"name":"上海浦东新区越婷惠美术馆"},{"address":"嘉定区曹安公路2888号","category":"culture.art_gallery","district":"嘉定区","latitude":31.265351,"longitude":121.320421,"name":"上海秦古美术馆"},{"address":"青浦区北青公路7203号","category":"culture.art_gallery","district":"青浦区","latitude":31.188575,"longitude":121.178225,"name":"上海青浦青渚美术馆"},{"address":"青浦区徐泾镇汇龙路168号","category":"culture.art_gallery","district":"青浦区","latitude":31.195334,"longitude":121.272736,"name":"上海青浦区金夜美术馆"},{"address":"青浦区练塘镇金前村金田路428号","category":"culture.art_gallery","district":"青浦区","latitude":31.028653,"longitude":121.049821,"name":"上海青浦区练塘可的美术馆"},{"address":"青浦区夏阳街道轻松路361号、青浦区朱家角镇北大街222号","category":"culture.art_gallery","district":"青浦区","latitude":31.140905,"longitude":121.117225,"name":"上海市鹤龙美术馆"},{"address":"徐汇区淮海中路1413号","category":"culture.art_gallery","district":"徐汇区","latitude":31.210155,"longitude":121.448216,"name":"上海市徐汇区艺术馆"},{"address":"松江区新桥镇新腾路9号1幢1层108室","category":"culture.art_gallery","district":"松江区","latitude":31.052544,"longitude":121.288677,"name":"上海松江清控人居美术馆"},{"address":"松江区泗泾镇开江东路173号","category":"culture.art_gallery","district":"松江区","latitude":31.112218,"longitude":121.279656,"name":"上海松江区贤禾美术馆"},{"address":"松江区泗砖南路255弄193号","category":"culture.art_gallery","district":"松江区","latitude":31.033245,"longitude":121.198175,"name":"上海松江区新桥美术馆"},{"address":"松江区秀南街106号","category":"culture.art_gallery","district":"松江区","latitude":31.005278,"longitude":121.210213,"name":"上海松江云间美术馆"},{"address":"松江区人民北路1503号二层","category":"culture.art_gallery","district":"松江区","latitude":31.000896,"longitude":121.24224,"name":"上海松江云间少儿美术馆"},{"address":"普陀区丹巴路99号C3座","category":"culture.art_gallery","district":"普陀区","latitude":31.22287,"longitude":121.379036,"name":"上海苏宁艺术馆"},{"address":"黄浦区虎丘路20号","category":"culture.art_gallery","district":"黄浦区","latitude":31.241209,"longitude":121.487612,"name":"上海外滩美术馆"},{"address":"浦东新区潍坊路328号","category":"culture.art_gallery","district":"浦东新区","latitude":31.228392,"longitude":121.535278,"name":"上海王狮美术馆"},{"address":"浦东新区陆家嘴东路15号","category":"culture.art_gallery","district":"浦东新区","latitude":31.236772,"longitude":121.506922,"name":"上海吴昌硕纪念馆"},{"address":"奉贤区海湾旅游区海马路5818号","category":"culture.art_gallery","district":"奉贤区","latitude":31.046583,"longitude":121.442,"name":"上海吴宜恩美术馆"},{"address":"徐汇区桂林路406号","category":"culture.art_gallery","district":"徐汇区","latitude":31.172848,"longitude":121.416471,"name":"上海徐汇区九点水美术馆"},{"address":"长宁区延安西路726号7楼K座","category":"culture.art_gallery","district":"长宁区","latitude":31.215361,"longitude":121.433762,"name":"上海杨培明宣传画收藏艺术馆"},{"address":"浦东新区滨江大道 4777 号","category":"culture.art_gallery","district":"浦东新区","latitude":31.21647,"longitude":121.512409,"name":"上海艺仓美术馆"},{"address":"松江区王家厍路885弄云堡未来市艺术文创园区3号楼","category":"culture.art_gallery","district":"松江区","latitude":31.090282,"longitude":121.232096,"name":"上海艺术百代美术馆"},{"address":"徐汇区龙腾大道2380号","category":"culture.art_gallery","district":"徐汇区","latitude":31.164519,"longitude":121.464321,"name":"上海油罐艺术中心"},{"address":"长宁区金珠路111号","category":"culture.art_gallery","district":"长宁区","latitude":31.198708,"longitude":121.400147,"name":"上海油画雕塑院美术馆"},{"address":"长宁区长宁路1978号","category":"culture.art_gallery","district":"长宁区","latitude":31.218727,"longitude":121.401277,"name":"上海长宁华萃当代美术馆"},{"address":"长宁区威宁路369号","category":"culture.art_gallery","district":"长宁区","latitude":31.214504,"longitude":121.384445,"name":"上海长宁王小慧艺术馆"},{"address":"长宁区番禺路300弄7号3幢","category":"culture.art_gallery","district":"长宁区","latitude":31.204495,"longitude":121.42837,"name":"上海正好美术馆"},{"address":"长宁区虹桥路1398号","category":"culture.art_gallery","district":"长宁区","latitude":31.197651,"longitude":121.405304,"name":"上海中国画院 程十发美术馆"},{"address":"徐汇区岳阳路197号","category":"culture.art_gallery","district":"徐汇区","latitude":31.204502,"longitude":121.452796,"name":"上海中国画院美术馆"},{"address":"松江区三新北路900弄910号","category":"culture.art_gallery","district":"松江区","latitude":31.033303,"longitude":121.193635,"name":"上海YOUNG美术馆"},{"address":"松江区三新北路900弄601号","category":"culture.art_gallery","district":"松江区","latitude":31.033245,"longitude":121.198175,"name":"松江美术馆"},{"address":"嘉定区曹安公路4058号艺河湾艺术区","category":"culture.art_gallery","district":"嘉定区","latitude":31.277975,"longitude":121.266675,"name":"泰美术馆"},{"address":"徐汇区龙腾大道2600号","category":"culture.art_gallery","district":"徐汇区","latitude":31.167682,"longitude":121.463841,"name":"西岸美术馆"},{"address":"静安区汶水路40号宏慧视界BOX一号库2号楼","category":"culture.art_gallery","district":"静安区","latitude":31.293375,"longitude":121.457423,"name":"心象艺术馆"},{"address":"青浦区蟠鼎路123弄8号","category":"culture.art_gallery","district":"青浦区","latitude":31.189357,"longitude":121.27761,"name":"余德耀美术馆"},{"address":"松江区人民南路6弄69号、人民南路26号","category":"culture.art_gallery","district":"松江区","latitude":31.000689,"longitude":121.229075,"name":"云间会堂美术馆"},{"address":"浦东新区富城路99号主楼2-3层","category":"culture.art_gallery","district":"浦东新区","latitude":31.234501,"longitude":121.499619,"name":"震旦美术馆"},{"address":"闵行区华漕镇申长北路156号","category":"culture.art_gallery","district":"闵行区","latitude":31.205925,"longitude":121.387754,"name":"中闵虹桥美术馆"},{"address":"浦东新区周浦镇周邓路6851号","category":"culture.art_gallery","district":"浦东新区","latitude":31.112355,"longitude":121.597872,"name":"周浦美术馆"},{"address":"虹口区欧阳路580号","category":"culture.art_gallery","district":"虹口区","latitude":31.274412,"longitude":121.486121,"name":"朱屺瞻艺术馆"},{"address":"松江区洙桥村696号","category":"culture.art_gallery","district":"松江区","latitude":30.962952,"longitude":121.113185,"name":"洙桥美术馆"},{"address":"黄浦区淮海中路300号B3","category":"culture.art_gallery","district":"黄浦区","latitude":31.223705,"longitude":121.473459,"name":"chi K11美术馆"},{"address":"静安区光复路127号","category":"culture.art_gallery","district":"静安区","latitude":31.239697,"longitude":121.469617,"name":"Fotografiska影像艺术中心"},{"address":"徐汇区瑞宁路111号","category":"culture.art_gallery","district":"徐汇区","latitude":31.187793,"longitude":121.470273,"name":"START星美术馆"},{"address":"延安东路523号(大世界地铁站3号口步行100米)","category":"culture.concert_hall","district":"黄浦区","latitude":31.22692,"longitude":121.47769,"name":"凯迪拉克·上海音乐厅"},{"address":"人民大道300号","category":"culture.concert_hall","district":"黄浦区","latitude":31.2294,"longitude":121.471825,"name":"上海大剧院"},{"address":"丁香路425号东方艺术中心","category":"culture.concert_hall","district":"浦东新区","latitude":31.222743,"longitude":121.541278,"name":"上海东方艺术中心"},{"address":"茂名南路178号(陕西南路地铁站6号口步行390米)","category":"culture.concert_hall","district":"黄浦区","latitude":31.211941,"longitude":121.462196,"name":"上海文化广场"},{"address":"汾阳路6号(陕西南路地铁站7号口步行350米)","category":"culture.concert_hall","district":"徐汇区","latitude":31.214725,"longitude":121.455425,"name":"上音歌剧院"},{"address":"衡山路811号","category":"culture.museum","district":"徐汇区","latitude":31.197851,"longitude":121.441928,"name":"《义勇军进行曲》灌制地纪念馆 （百代小楼）"},{"address":"练塘镇老朱枫公路3516号","category":"culture.museum","district":"青浦区","latitude":31.007093,"longitude":121.044155,"name":"陈云纪念馆"},{"address":"城桥镇鳌山路696号","category":"culture.museum","district":"崇明区","latitude":31.618645,"longitude":121.401758,"name":"崇明区博物馆"},{"address":"马当路306弄4号","category":"culture.museum","district":"黄浦区","latitude":31.217351,"longitude":121.474625,"name":"大韩民国临时政府旧址管理处"},{"address":"人民南路64号","category":"culture.museum","district":"松江区","latitude":31.002028,"longitude":121.231287,"name":"董其昌书画艺术博物馆"},{"address":"奉贤区湖畔路333号","category":"culture.museum","district":"奉贤区","latitude":30.933852,"longitude":121.502393,"name":"奉贤区博物馆"},{"address":"邯郸路220号","category":"culture.museum","district":"杨浦区","latitude":31.296698,"longitude":121.499453,"name":"复旦大学博物馆"},{"address":"高桥镇义王路1号","category":"culture.museum","district":"浦东新区","latitude":31.34549,"longitude":121.583857,"name":"高桥历史文化陈列馆"},{"address":"南大街349号","category":"culture.museum","district":"嘉定区","latitude":31.384089,"longitude":121.250746,"name":"顾维钧生平陈列馆"},{"address":"澳门路300号","category":"culture.museum","district":"普陀区","latitude":31.247088,"longitude":121.442528,"name":"顾正红纪念馆"},{"address":"荆州路151号","category":"culture.museum","district":"杨浦区","latitude":31.257901,"longitude":121.51453,"name":"国歌展示馆"},{"address":"局门路796号","category":"culture.museum","district":"黄浦区","latitude":31.193284,"longitude":121.481237,"name":"国际乒联博物馆（中国乒乓球博物馆）"},{"address":"衡复风貌馆（复兴西路62号）夏衍旧居（乌鲁木齐南路178号2号楼）、草婴书房（乌鲁木齐南路178号3号楼）、张乐平故居（五原路288弄3号）、柯灵故居（复兴西路147号）、衡复艺术中心（乌鲁木齐南路178号1号楼）","category":"culture.museum","district":"徐汇区","latitude":31.233591,"longitude":121.505708,"name":"衡复风貌博物馆群"},{"address":"西苏州路1037号","category":"culture.museum","district":"普陀区","latitude":31.243601,"longitude":121.448356,"name":"沪西工人半日学校史料陈列馆"},{"address":"中山北路3663号","category":"culture.museum","district":"普陀区","latitude":31.160456,"longitude":121.421103,"name":"华东师范大学博物馆"},{"address":"徐梅路700号","category":"culture.museum","district":"徐汇区","latitude":31.124546,"longitude":121.448763,"name":"黄道婆纪念馆"},{"address":"新川路218号","category":"culture.museum","district":"浦东新区","latitude":31.195094,"longitude":121.70507,"name":"黄炎培故居"},{"address":"博乐路215号","category":"culture.museum","district":"嘉定区","latitude":31.386582,"longitude":121.251932,"name":"嘉定博物馆"},{"address":"南大街321号","category":"culture.museum","district":"嘉定区","latitude":31.383373,"longitude":121.251289,"name":"嘉定竹刻博物馆"},{"address":"长兴岛长兴江南大道988号","category":"culture.museum","district":"崇明区","latitude":31.354277,"longitude":121.754162,"name":"江南造船展示馆"},{"address":"银城中路188号47层","category":"culture.museum","district":"浦东新区","latitude":31.239055,"longitude":121.504083,"name":"交通银行博物馆"},{"address":"金山大道1800号","category":"culture.museum","district":"金山区","latitude":30.744537,"longitude":121.348774,"name":"金山区博物馆"},{"address":"黄渡路107弄15号","category":"culture.museum","district":"虹口区","latitude":31.268021,"longitude":121.481397,"name":"李白烈士故居"},{"address":"闵行区新镇路1538号","category":"culture.museum","district":"闵行区","latitude":31.160636,"longitude":121.359371,"name":"闵行区博物馆"},{"address":"上大路55号","category":"culture.museum","district":"宝山区","latitude":31.314273,"longitude":121.404567,"name":"南京路上好八连事迹陈列馆"},{"address":"惠南镇文师街18号","category":"culture.museum","district":"浦东新区","latitude":31.054744,"longitude":121.767743,"name":"浦东历史博物馆"},{"address":"华山路1800号","category":"culture.museum","district":"徐汇区","latitude":31.201055,"longitude":121.435504,"name":"钱学森图书馆"},{"address":"华青南路1000号","category":"culture.museum","district":"青浦区","latitude":31.151922,"longitude":121.13496,"name":"青浦区博物馆"},{"address":"延安西路1882号","category":"culture.museum","district":"长宁区","latitude":31.202922,"longitude":121.413704,"name":"上海（东华大学）纺织服饰博物馆"},{"address":"蔡伦路1200号","category":"culture.museum","district":"浦东新区","latitude":31.192794,"longitude":121.599295,"name":"上海（中医药大学）中医药博物馆"},{"address":"锦秋路117号","category":"culture.museum","district":"宝山区","latitude":31.32202,"longitude":121.403514,"name":"上海百诺巧克力博物馆"},{"address":"银城中路501号上海中心大厦38层","category":"culture.museum","district":"浦东新区","latitude":31.233526,"longitude":121.505386,"name":"上海宝库匠心博物馆"},{"address":"长江西路685号","category":"culture.museum","district":"宝山区","latitude":31.343692,"longitude":121.471877,"name":"上海玻璃博物馆"},{"address":"人民大道201号","category":"culture.museum","district":"黄浦区","latitude":31.228231,"longitude":121.47548,"name":"上海博物馆"},{"address":"世纪大道1952号","category":"culture.museum","district":"浦东新区","latitude":31.219913,"longitude":121.538745,"name":"上海博物馆东馆"},{"address":"国定路777号","category":"culture.museum","district":"杨浦区","latitude":31.305892,"longitude":121.501987,"name":"上海财经大学商学博物馆"},{"address":"华山路303弄16号","category":"culture.museum","district":"静安区","latitude":31.218916,"longitude":121.447808,"name":"上海蔡元培故居陈列馆"},{"address":"友谊路1号","category":"culture.museum","district":"宝山区","latitude":31.409837,"longitude":121.493826,"name":"上海陈化成纪念馆"},{"address":"人民大道100号","category":"culture.museum","district":"黄浦区","latitude":31.231444,"longitude":121.475551,"name":"上海城市规划展示馆"},{"address":"前竖公路2773号三楼","category":"culture.museum","district":"崇明区","latitude":31.278457,"longitude":121.543633,"name":"上海崇明竖新抗日战争博物馆"},{"address":"向化镇向中路91号","category":"culture.museum","district":"崇明区","latitude":31.520048,"longitude":121.722913,"name":"上海崇明向化灶文化博物馆"},{"address":"和静路981号","category":"culture.museum","district":"嘉定区","latitude":31.300976,"longitude":121.164943,"name":"上海大来时间博物馆"},{"address":"上大路99号（南陈路333号）","category":"culture.museum","district":"宝山区","latitude":31.314321,"longitude":121.399544,"name":"上海大学博物馆（海派文化博物馆）"},{"address":"吴中路1779号","category":"culture.museum","district":"闵行区","latitude":31.169686,"longitude":121.366446,"name":"上海地铁博物馆"},{"address":"青村镇青伟路233号2-3楼","category":"culture.museum","district":"奉贤区","latitude":30.93474,"longitude":121.602025,"name":"上海电线电缆博物馆"},{"address":"延安东路34号","category":"culture.museum","district":"黄浦区","latitude":31.23333,"longitude":121.4908,"name":"上海电信博物馆"},{"address":"漕溪北路595号A座1至4楼","category":"culture.museum","district":"徐汇区","latitude":31.186294,"longitude":121.438473,"name":"上海电影博物馆"},{"address":"祝桥镇江镇路100号","category":"culture.museum","district":"浦东新区","latitude":31.177477,"longitude":121.783294,"name":"上海东方地质博物馆"},{"address":"张江路69号","category":"culture.museum","district":"浦东新区","latitude":31.21266,"longitude":121.611653,"name":"上海动漫博物馆"},{"address":"古北路620号","category":"culture.museum","district":"长宁区","latitude":31.207874,"longitude":121.399444,"name":"上海对外经贸大学博物馆"},{"address":"宋园路61号","category":"culture.museum","district":"长宁区","latitude":31.193773,"longitude":121.412937,"name":"上海儿童博物馆"},{"address":"澳门路128号","category":"culture.museum","district":"普陀区","latitude":31.246903,"longitude":121.44612,"name":"上海纺织博物馆"},{"address":"外青松公路7270弄600号","category":"culture.museum","district":"青浦区","latitude":31.110478,"longitude":121.134599,"name":"上海福寿园人文纪念馆"},{"address":"汾阳路79号","category":"culture.museum","district":"徐汇区","latitude":31.210087,"longitude":121.454495,"name":"上海工艺美术博物馆"},{"address":"瑞金南路518号","category":"culture.museum","district":"徐汇区","latitude":31.198348,"longitude":121.468314,"name":"上海公安博物馆"},{"address":"银城中路501号上海中心大厦37层","category":"culture.museum","district":"浦东新区","latitude":31.233591,"longitude":121.505708,"name":"上海观复博物馆"},{"address":"先锋街66号阿拉城26幢一、二层","category":"culture.museum","district":"闵行区","latitude":31.177494,"longitude":121.373164,"name":"上海观止矿晶博物馆"},{"address":"虹桥路1376号广播大厦","category":"culture.museum","district":"长宁区","latitude":31.196568,"longitude":121.407494,"name":"上海广播博物馆"},{"address":"佘天昆公路辰山植物园内（辰山植物园3号门）","category":"culture.museum","district":"松江区","latitude":31.221583,"longitude":121.325578,"name":"上海国际酒文化博物馆"},{"address":"曹安公路1978号1号楼103室","category":"culture.museum","district":"嘉定区","latitude":31.256475,"longitude":121.357125,"name":"上海海纳吴觉农茶文化博物馆"},{"address":"万灵路99号","category":"culture.museum","district":"浦东新区","latitude":31.234825,"longitude":121.499404,"name":"上海海派红木艺术博物馆"},{"address":"军工路318号","category":"culture.museum","district":"杨浦区","latitude":30.882782,"longitude":121.89734,"name":"上海海洋大学博物馆"},{"address":"虹许路731号8号楼1楼","category":"culture.museum","district":"闵行区","latitude":31.190801,"longitude":121.388532,"name":"上海翰林匾额博物馆"},{"address":"沪闵路7900号","category":"culture.museum","district":"闵行区","latitude":31.136452,"longitude":121.406043,"name":"上海航宇科普中心"},{"address":"赵重公路135号","category":"culture.museum","district":"青浦区","latitude":31.154687,"longitude":121.191752,"name":"上海红十字历史文化陈列馆"},{"address":"西康路538号1幢2楼","category":"culture.museum","district":"静安区","latitude":31.234407,"longitude":121.447092,"name":"上海寰宇铃铛博物馆"},{"address":"秀浦路2388号1号楼","category":"culture.museum","district":"浦东新区","latitude":31.128317,"longitude":121.605717,"name":"上海火炬众创孵化博物馆"},{"address":"东川路800号文博楼","category":"culture.museum","district":"闵行区","latitude":31.027521,"longitude":121.448289,"name":"上海交通大学博物馆"},{"address":"华山路1954号","category":"culture.museum","district":"徐汇区","latitude":31.200222,"longitude":121.435326,"name":"上海交通大学董浩云航运博物馆"},{"address":"华山路1954号","category":"culture.museum","district":"徐汇区","latitude":31.198877,"longitude":121.435896,"name":"上海交通大学校史博物馆"},{"address":"宝杨路599号","category":"culture.museum","district":"宝山区","latitude":31.400736,"longitude":121.490697,"name":"上海解放纪念馆"},{"address":"园顺路89号","category":"culture.museum","district":"浦东新区","latitude":31.021125,"longitude":121.724201,"name":"上海金刚博物馆"},{"address":"世纪大道2000号","category":"culture.museum","district":"浦东新区","latitude":31.218114,"longitude":121.541358,"name":"上海科技馆"},{"address":"九新公路855号","category":"culture.museum","district":"松江区","latitude":31.099478,"longitude":121.318399,"name":"上海来伊份零食博物馆"},{"address":"五星路676弄39号","category":"culture.museum","district":"浦东新区","latitude":31.1745,"longitude":121.572673,"name":"上海老相机摄影博物馆"},{"address":"水丰路100号","category":"culture.museum","district":"杨浦区","latitude":31.282273,"longitude":121.543429,"name":"上海理工大学印刷博物馆"},{"address":"文翔路2800号","category":"culture.museum","district":"松江区","latitude":31.048008,"longitude":121.200566,"name":"上海立信会计学院中国会计博物馆"},{"address":"泰康路25号","category":"culture.museum","district":"黄浦区","latitude":31.207795,"longitude":121.470292,"name":"上海琉璃艺术博物馆"},{"address":"甜爱路200号","category":"culture.museum","district":"虹口区","latitude":31.269682,"longitude":121.483843,"name":"上海鲁迅纪念馆"},{"address":"茂名北路120弄","category":"culture.museum","district":"静安区","latitude":31.226303,"longitude":121.460555,"name":"上海毛泽东旧居陈列馆"},{"address":"环桥路208号2号楼","category":"culture.museum","district":"浦东新区","latitude":31.119943,"longitude":121.609754,"name":"上海美特斯邦威服饰博物馆"},{"address":"普育西路105号1号楼","category":"culture.museum","district":"黄浦区","latitude":31.210331,"longitude":121.495446,"name":"上海民政博物馆"},{"address":"七宝镇联明路400号","category":"culture.museum","district":"闵行区","latitude":31.144288,"longitude":121.345657,"name":"上海民族乐器博物馆"},{"address":"张堰镇新建路130号","category":"culture.museum","district":"金山区","latitude":30.801751,"longitude":121.285745,"name":"上海南社纪念馆"},{"address":"长宁路878号","category":"culture.museum","district":"长宁区","latitude":31.220264,"longitude":121.419438,"name":"上海凝聚力工程博物馆"},{"address":"海湾镇随塘河路1677号","category":"culture.museum","district":"奉贤区","latitude":30.864286,"longitude":121.677589,"name":"上海农垦博物馆"},{"address":"漕宝路650号1号楼2楼","category":"culture.museum","district":"徐汇区","latitude":30.883792,"longitude":121.010847,"name":"上海品牌博物馆"},{"address":"南京西路595号上海棋院1楼","category":"culture.museum","district":"静安区","latitude":31.230405,"longitude":121.465505,"name":"上海棋牌文化博物馆"},{"address":"蒲西路166号","category":"culture.museum","district":"徐汇区","latitude":31.190156,"longitude":121.436219,"name":"上海气象博物馆"},{"address":"博园路7565号","category":"culture.museum","district":"嘉定区","latitude":31.278709,"longitude":121.170248,"name":"上海汽车博物馆"},{"address":"万源路2729号","category":"culture.museum","district":"闵行区","latitude":31.178455,"longitude":121.384588,"name":"上海乳业博物馆"},{"address":"中山南路1551号","category":"culture.museum","district":"黄浦区","latitude":31.205423,"longitude":121.49563,"name":"上海三山会馆管理处"},{"address":"桂林路100号东部校区艺苑楼一楼","category":"culture.museum","district":"徐汇区","latitude":31.160456,"longitude":121.421103,"name":"上海师范大学博物馆"},{"address":"蒙自路818号","category":"culture.museum","district":"黄浦区","latitude":31.194391,"longitude":121.482161,"name":"上海世博会博物馆"},{"address":"杨树浦路1578号","category":"culture.museum","district":"杨浦区","latitude":31.255879,"longitude":121.541547,"name":"上海世界技能博物馆"},{"address":"漕泾镇蒋庄路2067号","category":"culture.museum","district":"金山区","latitude":30.808465,"longitude":121.358238,"name":"上海市沧海盐田盐文化博物馆"},{"address":"南京西路325号","category":"culture.museum","district":"黄浦区","latitude":31.230594,"longitude":121.470891,"name":"上海市历史博物馆（上海革命历史博物馆）"},{"address":"龙华西路180号","category":"culture.museum","district":"徐汇区","latitude":31.176658,"longitude":121.449023,"name":"上海市龙华烈士纪念馆"},{"address":"金泽镇任屯村111号","category":"culture.museum","district":"青浦区","latitude":31.045726,"longitude":120.973273,"name":"上海市青浦区任屯血防陈列馆"},{"address":"中山东路233号","category":"culture.museum","district":"松江区","latitude":31.006392,"longitude":121.246367,"name":"上海市松江区博物馆"},{"address":"武威东路76号","category":"culture.museum","district":"宝山区","latitude":31.276569,"longitude":121.409529,"name":"上海市陶行知纪念馆"},{"address":"中山东一路475号","category":"culture.museum","district":"黄浦区","latitude":31.242302,"longitude":121.49147,"name":"上海市外滩历史纪念馆"},{"address":"复兴中路301号","category":"culture.museum","district":"黄浦区","latitude":31.216427,"longitude":121.476332,"name":"上海市银行博物馆"},{"address":"愚园路1376弄34号","category":"culture.museum","district":"长宁区","latitude":31.219764,"longitude":121.422985,"name":"上海市长宁区革命文物陈列馆"},{"address":"浦东大道2601号","category":"culture.museum","district":"浦东新区","latitude":31.261175,"longitude":121.564075,"name":"上海双拥工作展览馆"},{"address":"光复路21号","category":"culture.museum","district":"静安区","latitude":31.24034,"longitude":121.471104,"name":"上海四行仓库抗战纪念馆"},{"address":"沪青平公路3993号","category":"culture.museum","district":"青浦区","latitude":31.146944,"longitude":121.163996,"name":"上海崧泽遗址博物馆"},{"address":"友谊路1号","category":"culture.museum","district":"宝山区","latitude":31.409417,"longitude":121.494088,"name":"上海淞沪抗战纪念馆"},{"address":"淮海中路1843号","category":"culture.museum","district":"徐汇区","latitude":31.204017,"longitude":121.439062,"name":"上海宋庆龄故居纪念馆"},{"address":"中华路268号","category":"culture.museum","district":"黄浦区","latitude":31.221392,"longitude":121.499602,"name":"上海隧道科技馆"},{"address":"香山路7号","category":"culture.museum","district":"黄浦区","latitude":31.216109,"longitude":121.467744,"name":"上海孙中山故居纪念馆"},{"address":"泸定路46弄3号2层","category":"culture.museum","district":"普陀区","latitude":31.23333,"longitude":121.4908,"name":"上海泰迪之家泰迪熊博物馆"},{"address":"重庆南路205弄53-54号","category":"culture.museum","district":"黄浦区","latitude":31.214456,"longitude":121.471445,"name":"上海韬奋纪念馆"},{"address":"南京西路150号","category":"culture.museum","district":"黄浦区","latitude":31.233853,"longitude":121.471965,"name":"上海体育博物馆"},{"address":"长海路399号","category":"culture.museum","district":"杨浦区","latitude":31.314099,"longitude":121.527904,"name":"上海体育大学武术博物馆"},{"address":"西佘山顶","category":"culture.museum","district":"松江区","latitude":31.094256,"longitude":121.193605,"name":"上海天文博物馆"},{"address":"临港大道380号","category":"culture.museum","district":"浦东新区","latitude":30.9128,"longitude":121.926924,"name":"上海天文馆（上海科技馆分馆）"},{"address":"天目东路200号","category":"culture.museum","district":"静安区","latitude":31.250035,"longitude":121.476228,"name":"上海铁路博物馆"},{"address":"蒲汇塘路55号","category":"culture.museum","district":"徐汇区","latitude":31.186616,"longitude":121.435149,"name":"上海土山湾博物馆"},{"address":"文翔路1550号","category":"culture.museum","district":"松江区","latitude":31.044525,"longitude":121.223075,"name":"上海外国语大学语言博物馆"},{"address":"田林路200号B幢1楼","category":"culture.museum","district":"徐汇区","latitude":31.170048,"longitude":121.406938,"name":"上海无线电博物馆"},{"address":"陆家嘴东路15号","category":"culture.museum","district":"浦东新区","latitude":31.236772,"longitude":121.506922,"name":"上海吴昌硕纪念馆"},{"address":"中山西路229号","category":"culture.museum","district":"长宁区","latitude":31.21817,"longitude":121.411362,"name":"上海消防博物馆"},{"address":"宝昌路533号","category":"culture.museum","district":"静安区","latitude":31.260081,"longitude":121.472707,"name":"上海眼镜博物馆"},{"address":"长江路258号中成智谷C8栋","category":"culture.museum","district":"宝山区","latitude":31.348552,"longitude":121.497333,"name":"上海杨明洁工业设计博物馆"},{"address":"延安西路1731号","category":"culture.museum","district":"长宁区","latitude":31.210917,"longitude":121.41459,"name":"上海艺术品博物馆"},{"address":"淮海中路1189号","category":"culture.museum","district":"徐汇区","latitude":31.214011,"longitude":121.453317,"name":"上海音乐学院东方乐器博物馆"},{"address":"新闸路1209弄60号","category":"culture.museum","district":"静安区","latitude":31.232252,"longitude":121.45297,"name":"上海印刷字体展示馆"},{"address":"长阳路62号","category":"culture.museum","district":"虹口区","latitude":31.25409,"longitude":121.509211,"name":"上海犹太难民纪念馆"},{"address":"天潼路395号2楼","category":"culture.museum","district":"虹口区","latitude":31.244286,"longitude":121.484749,"name":"上海邮政博物馆"},{"address":"浦东大道288号1楼","category":"culture.museum","district":"浦东新区","latitude":31.219913,"longitude":121.538745,"name":"上海有恒博物馆"},{"address":"福佑路168号","category":"culture.museum","district":"黄浦区","latitude":31.225814,"longitude":121.492855,"name":"上海豫园管理处"},{"address":"延长西路619号","category":"culture.museum","district":"普陀区","latitude":31.259617,"longitude":121.430364,"name":"上海元代水闸遗址博物馆"},{"address":"国顺东路369号","category":"culture.museum","district":"杨浦区","latitude":31.294426,"longitude":121.527939,"name":"上海院士风采馆"},{"address":"南桥镇南桥路839号","category":"culture.museum","district":"奉贤区","latitude":30.926421,"longitude":121.453687,"name":"上海真静传统木作博物馆"},{"address":"富城路99号","category":"culture.museum","district":"浦东新区","latitude":31.234825,"longitude":121.499404,"name":"上海震旦博物馆"},{"address":"海乐路200号","category":"culture.museum","district":"奉贤区","latitude":30.81546,"longitude":121.511827,"name":"上海知青博物馆"},{"address":"蕰川路6号","category":"culture.museum","district":"宝山区","latitude":31.344361,"longitude":121.434666,"name":"上海智慧湾增材制造文化博物馆"},{"address":"逸仙路3000号3号楼二层","category":"culture.museum","district":"宝山区","latitude":31.340306,"longitude":121.496755,"name":"上海中国工业设计博物馆"},{"address":"申港大道197号","category":"culture.museum","district":"浦东新区","latitude":30.89619,"longitude":121.919745,"name":"上海中国航海博物馆"},{"address":"茸梅路1177弄7号","category":"culture.museum","district":"松江区","latitude":31.049152,"longitude":121.245029,"name":"上海中国留学生博物馆"},{"address":"长阳路728号","category":"culture.museum","district":"杨浦区","latitude":31.261424,"longitude":121.518526,"name":"上海中国烟草博物馆"},{"address":"汇金路889号","category":"culture.museum","district":"青浦区","latitude":31.168244,"longitude":121.14888,"name":"上海中华印刷博物馆"},{"address":"福州路429号","category":"culture.museum","district":"黄浦区","latitude":31.233625,"longitude":121.482418,"name":"上海周虎臣曹素功笔墨博物馆"},{"address":"新源路1375号","category":"culture.museum","district":"嘉定区","latitude":31.309205,"longitude":121.150372,"name":"上海翥云艺术博物馆"},{"address":"北京西路510号","category":"culture.museum","district":"静安区","latitude":31.235021,"longitude":121.462672,"name":"上海自然博物馆（上海科技馆分馆）"},{"address":"沪太路2751号","category":"culture.museum","district":"宝山区","latitude":31.309879,"longitude":121.412129,"name":"上海尊木汇木文化博物馆"},{"address":"海伦路504号","category":"culture.museum","district":"虹口区","latitude":31.258552,"longitude":121.487422,"name":"沈尹默故居"},{"address":"曹安公路1978号百佛园","category":"culture.museum","district":"嘉定区","latitude":31.256108,"longitude":121.356779,"name":"四海壶具博物馆"},{"address":"宋园路21号","category":"culture.museum","district":"长宁区","latitude":31.195022,"longitude":121.410522,"name":"宋庆龄生平事迹陈列馆"},{"address":"光复西路2690号","category":"culture.museum","district":"普陀区","latitude":31.220673,"longitude":121.379427,"name":"苏州河工业文明展示馆"},{"address":"四平路1239号同济大学一·二九大楼","category":"culture.museum","district":"杨浦区","latitude":31.281439,"longitude":121.504066,"name":"同济大学博物馆"},{"address":"豫园新路20号3楼（豫园商城内）","category":"culture.museum","district":"黄浦区","latitude":31.227122,"longitude":121.490957,"name":"童涵春堂中药博物馆"},{"address":"新场镇海泉街128号","category":"culture.museum","district":"浦东新区","latitude":31.025283,"longitude":121.646247,"name":"新场历史文化陈列馆"},{"address":"南丹路17号","category":"culture.museum","district":"徐汇区","latitude":31.189282,"longitude":121.434317,"name":"徐光启纪念馆"},{"address":"武定路203号","category":"culture.museum","district":"静安区","latitude":31.235184,"longitude":121.456101,"name":"元利当铺旧址博物馆"},{"address":"七宝古镇蒲溪广场75号","category":"culture.museum","district":"闵行区","latitude":31.152246,"longitude":121.353848,"name":"张充仁纪念馆"},{"address":"川南奉公路4398号","category":"culture.museum","district":"浦东新区","latitude":31.131704,"longitude":121.762806,"name":"张闻天故居"},{"address":"思南路73号","category":"culture.museum","district":"黄浦区","latitude":31.214194,"longitude":121.46848,"name":"中共代表团驻沪办事处纪念馆（周公馆）"},{"address":"老成都北路7弄30号","category":"culture.museum","district":"静安区","latitude":31.224193,"longitude":121.466693,"name":"中共二大会址纪念馆"},{"address":"浙江北路118号","category":"culture.museum","district":"静安区","latitude":31.243668,"longitude":121.476278,"name":"中共三大后中央局机关历史纪念馆"},{"address":"愚园路81号","category":"culture.museum","district":"静安区","latitude":31.224725,"longitude":121.446568,"name":"中共上海地下组织斗争史陈列馆暨刘长胜故居"},{"address":"四川北路1468号","category":"culture.museum","district":"虹口区","latitude":31.254995,"longitude":121.484916,"name":"中共四大纪念馆"},{"address":"山海关路339号（静安雕塑公园北侧）","category":"culture.museum","district":"静安区","latitude":31.235919,"longitude":121.463593,"name":"中共淞浦特委机关旧址陈列馆"},{"address":"黄陂南路374号","category":"culture.museum","district":"黄浦区","latitude":31.220104,"longitude":121.476246,"name":"中共一大纪念馆"},{"address":"新闸路613弄12号","category":"culture.museum","district":"静安区","latitude":31.237338,"longitude":121.462466,"name":"中共中央军委机关旧址纪念馆"},{"address":"江宁路673弄10号","category":"culture.museum","district":"静安区","latitude":31.23754,"longitude":121.449229,"name":"中共中央秘书处机关旧址纪念馆"},{"address":"周家嘴路3678号","category":"culture.museum","district":"杨浦区","latitude":31.278457,"longitude":121.543633,"name":"中国近现代新闻出版博物馆"},{"address":"枫林路300号","category":"culture.museum","district":"徐汇区","latitude":31.193578,"longitude":121.455224,"name":"中国科学院上海昆虫博物馆"},{"address":"成都北路893弄1-11号","category":"culture.museum","district":"静安区","latitude":31.237878,"longitude":121.464112,"name":"中国劳动组合书记部旧址陈列馆"},{"address":"淮海中路567弄1-6号","category":"culture.museum","district":"黄浦区","latitude":31.220489,"longitude":121.468151,"name":"中国社会主义青年团中央机关旧址纪念馆"},{"address":"黄浦路15号","category":"culture.museum","district":"虹口区","latitude":31.244246,"longitude":121.490941,"name":"中国证券博物馆"},{"address":"武定路930弄14号","category":"culture.museum","district":"静安区","latitude":31.230786,"longitude":121.443617,"name":"中央特科机关旧址纪念馆"},{"address":"多伦路201弄2号","category":"culture.museum","district":"虹口区","latitude":31.263586,"longitude":121.481035,"name":"左联会址纪念馆"},{"address":"延安西路937号","category":"hospital.secondary_a","district":"","latitude":31.214353,"longitude":121.431846,"name":"上海电力医院"},{"address":"中山北一路666号(中山北二路口)","category":"hospital.secondary_a","district":"","latitude":31.284764,"longitude":121.484555,"name":"上海建工医院"},{"address":"重庆南路149号(近南昌路)","category":"hospital.secondary_a","district":"","latitude":31.218421,"longitude":121.472205,"name":"上海交通大学医学院附属瑞金医院卢湾分院"},{"address":"环镇北路1058号","category":"hospital.secondary_a","district":"","latitude":31.307295,"longitude":121.392261,"name":"上海市宝山区大场医院"},{"address":"友谊西路788号(友谊西路富长路口)","category":"hospital.secondary_a","district":"","latitude":31.378083,"longitude":121.412014,"name":"上海市宝山区精神卫生中心"},{"address":"永顺路88号","category":"hospital.secondary_a","district":"","latitude":31.413368,"longitude":121.350739,"name":"上海市宝山区罗店医院"},{"address":"长江西路1999号(通河新村地铁站2号口步行200米)","category":"hospital.secondary_a","district":"","latitude":31.332631,"longitude":121.442245,"name":"上海市宝山区仁和医院"},{"address":"牡丹江路216号8号楼","category":"hospital.secondary_a","district":"","latitude":31.378677,"longitude":121.496153,"name":"上海市宝山区吴淞中心医院"},{"address":"三沙洪路19号","category":"hospital.secondary_a","district":"","latitude":31.624239,"longitude":121.382981,"name":"上海市崇明区精神卫生中心"},{"address":"漕宝路8号","category":"hospital.secondary_a","district":"","latitude":31.167269,"longitude":121.433267,"name":"上海市第八人民医院"},{"address":"健康路147号","category":"hospital.secondary_a","district":"","latitude":30.892602,"longitude":121.157347,"name":"上海市第六人民医院金山分院"},{"address":"崇明大道2866号第十人民医院(崇明分院)","category":"hospital.secondary_a","district":"","latitude":31.529318,"longitude":121.62481,"name":"上海市第十人民医院崇明分院"},{"address":"三门路1279号","category":"hospital.secondary_a","district":"","latitude":31.311599,"longitude":121.469004,"name":"上海市第四人民医院"},{"address":"奉城镇川南奉公路9983号","category":"hospital.secondary_a","district":"","latitude":30.910498,"longitude":121.641724,"name":"上海市奉贤区奉城医院"},{"address":"奉炮公路1180弄1号","category":"hospital.secondary_a","district":"","latitude":30.844975,"longitude":121.518521,"name":"上海市奉贤区精神卫生中心"},{"address":"南桥镇南奉公路9588号","category":"hospital.secondary_a","district":"","latitude":30.912344,"longitude":121.461588,"name":"上海市奉贤区中医医院"},{"address":"上海市虹口区新市北路1536号","category":"hospital.secondary_a","district":"","latitude":31.306825,"longitude":121.480743,"name":"上海市虹口区精神卫生中心"},{"address":"瞿溪路1162号(近打浦路)","category":"hospital.secondary_a","district":"","latitude":31.198426,"longitude":121.473162,"name":"上海市黄浦区精神卫生中心"},{"address":"复兴中路528号","category":"hospital.secondary_a","district":"","latitude":31.215517,"longitude":121.466724,"name":"上海市黄浦区香山中医医院"},{"address":"和静路1060号","category":"hospital.secondary_a","district":"","latitude":31.302011,"longitude":121.161273,"name":"上海市嘉定区安亭医院"},{"address":"高台路1216号","category":"hospital.secondary_a","district":"","latitude":31.349836,"longitude":121.246742,"name":"上海市嘉定区妇幼保健院"},{"address":"外冈镇望安路701号","category":"hospital.secondary_a","district":"","latitude":31.346315,"longitude":121.14674,"name":"上海市嘉定区精神卫生中心"},{"address":"南翔镇众仁路495号","category":"hospital.secondary_a","district":"","latitude":31.291621,"longitude":121.3223,"name":"上海市嘉定区南翔医院"},{"address":"城北路1号","category":"hospital.secondary_a","district":"","latitude":31.387563,"longitude":121.239427,"name":"上海市嘉定区中心医院"},{"address":"博乐路222号","category":"hospital.secondary_a","district":"","latitude":31.387566,"longitude":121.250802,"name":"上海市嘉定区中医医院"},{"address":"金石南路1949号","category":"hospital.secondary_a","district":"","latitude":30.772757,"longitude":121.2504,"name":"上海市金山区精神卫生中心"},{"address":"亭林镇寺平北路78-80号","category":"hospital.secondary_a","district":"","latitude":30.884085,"longitude":121.314901,"name":"上海市金山区亭林医院"},{"address":"枫泾镇白牛路219号","category":"hospital.secondary_a","district":"","latitude":30.891843,"longitude":121.02254,"name":"上海市金山区中西医结合医院"},{"address":"平遥路80号","category":"hospital.secondary_a","district":"","latitude":31.289491,"longitude":121.42577,"name":"上海市静安区精神卫生中心"},{"address":"共和新路4500号","category":"hospital.secondary_a","district":"","latitude":31.313635,"longitude":121.447721,"name":"上海市静安区市北医院"},{"address":"中华新路619号","category":"hospital.secondary_a","district":"","latitude":31.254392,"longitude":121.461553,"name":"上海市静安区闸北中心医院"},{"address":"平型关路1505号","category":"hospital.secondary_a","district":"","latitude":31.289107,"longitude":121.459141,"name":"上海市静安区中医医院"},{"address":"川周公路2607号","category":"hospital.secondary_a","district":"","latitude":31.152071,"longitude":121.643399,"name":"上海市民政第二精神卫生中心"},{"address":"闻喜路590号","category":"hospital.secondary_a","district":"","latitude":31.309407,"longitude":121.457065,"name":"上海市民政第三精神卫生中心"},{"address":"中春路9999号","category":"hospital.secondary_a","district":"","latitude":31.167047,"longitude":121.326919,"name":"上海市民政第一精神卫生中心"},{"address":"顾戴路805号(近万源路)(顾戴路地铁站3号口步行100米)","category":"hospital.secondary_a","district":"","latitude":31.14039,"longitude":121.393499,"name":"上海市闵行区妇幼保健院"},{"address":"沪闵路3210号","category":"hospital.secondary_a","district":"","latitude":31.057227,"longitude":121.404354,"name":"上海市闵行区精神卫生中心"},{"address":"剑川路155号","category":"hospital.secondary_a","district":"","latitude":31.041356,"longitude":121.467722,"name":"上海市闵行区中西医结合医院"},{"address":"红枫路599号","category":"hospital.secondary_a","district":"","latitude":31.238565,"longitude":121.596184,"name":"上海市浦东新区妇幼保健院"},{"address":"新场镇牌楼东路588号","category":"hospital.secondary_a","district":"","latitude":31.024964,"longitude":121.660232,"name":"上海市浦东新区光明中医医院"},{"address":"三林路165号上海市浦东新区精神卫生中心内","category":"hospital.secondary_a","district":"","latitude":31.137147,"longitude":121.494918,"name":"上海市浦东新区精神卫生中心"},{"address":"惠南镇拱乐路2759号","category":"hospital.secondary_a","district":"","latitude":31.060726,"longitude":121.737536,"name":"上海市浦东新区南汇精神卫生中心"},{"address":"临沂路279号","category":"hospital.secondary_a","district":"","latitude":31.192819,"longitude":121.510023,"name":"上海市浦东新区浦南医院"},{"address":"川沙新镇绣川路340号","category":"hospital.secondary_a","district":"","latitude":31.180418,"longitude":121.695717,"name":"上海市浦东新区中医医院"},{"address":"同普路517号","category":"hospital.secondary_a","district":"","latitude":31.227218,"longitude":121.385739,"name":"上海市普陀区妇婴保健院"},{"address":"绿杨路658弄160支弄68号","category":"hospital.secondary_a","district":"","latitude":31.28537,"longitude":121.357104,"name":"上海市普陀区精神卫生中心"},{"address":"桃浦路910号","category":"hospital.secondary_a","district":"","latitude":31.260867,"longitude":121.385523,"name":"上海市普陀区利群医院"},{"address":"普陀路200号(江宁路地铁站4号口步行420米)","category":"hospital.secondary_a","district":"","latitude":31.245378,"longitude":121.440432,"name":"上海市普陀区人民医院"},{"address":"曹杨路1261号(近北石路)(真如地铁站2号口步行270米)","category":"hospital.secondary_a","district":"","latitude":31.248257,"longitude":121.407823,"name":"上海市普陀区中医医院"},{"address":"金泽镇练西公路4865号","category":"hospital.secondary_a","district":"","latitude":31.073114,"longitude":120.959582,"name":"上海市青浦区精神卫生中心"},{"address":"青安路95号(近青浦一中)","category":"hospital.secondary_a","district":"","latitude":31.150011,"longitude":121.115915,"name":"上海市青浦区中医医院"},{"address":"中山东路39号","category":"hospital.secondary_a","district":"","latitude":31.006559,"longitude":121.252653,"name":"上海市松江区方塔中医医院"},{"address":"西林北路1010号","category":"hospital.secondary_a","district":"","latitude":31.024417,"longitude":121.219883,"name":"上海市松江区妇幼保健院"},{"address":"塔汇路209号","category":"hospital.secondary_a","district":"","latitude":30.968061,"longitude":121.178608,"name":"上海市松江区精神卫生中心"},{"address":"泗通路389号","category":"hospital.secondary_a","district":"","latitude":31.119975,"longitude":121.253721,"name":"上海市松江区泗泾医院"},{"address":"龙华西路249-251号","category":"hospital.secondary_a","district":"","latitude":31.173163,"longitude":121.446913,"name":"上海市徐汇区精神卫生中心"},{"address":"军工路585号","category":"hospital.secondary_a","district":"","latitude":31.288757,"longitude":121.551894,"name":"上海市杨浦区精神卫生中心"},{"address":"双阳路480号","category":"hospital.secondary_a","district":"","latitude":31.282411,"longitude":121.53062,"name":"上海市杨浦区控江医院"},{"address":"市光路999号","category":"hospital.secondary_a","district":"","latitude":31.321058,"longitude":121.537431,"name":"上海市杨浦区市东医院"},{"address":"眉州路185号","category":"hospital.secondary_a","district":"","latitude":31.259425,"longitude":121.53622,"name":"上海市杨浦区中医医院"},{"address":"镇宁路233号","category":"hospital.secondary_a","district":"","latitude":31.218721,"longitude":121.436459,"name":"上海市长宁区妇幼保健院"},{"address":"新泾镇协和路299弄","category":"hospital.secondary_a","district":"","latitude":31.213414,"longitude":121.354446,"name":"上海市长宁区精神卫生中心"},{"address":"娄山关路868号(娄山关路地铁站2号口步行470米)","category":"hospital.secondary_a","district":"","latitude":31.214668,"longitude":121.405796,"name":"上海市长宁区天山中医医院"},{"address":"春雷路456号","category":"hospital.secondary_a","district":"","latitude":31.412384,"longitude":121.432378,"name":"上海中冶医院"},{"address":"万源路399号","category":"hospital.tertiary_a","district":"","latitude":31.139147,"longitude":121.394971,"name":"复旦大学附属儿科医院"},{"address":"沈阳路128号","category":"hospital.tertiary_a","district":"","latitude":31.259202,"longitude":121.534463,"name":"复旦大学附属妇产科医院"},{"address":"乌鲁木齐中路12号","category":"hospital.tertiary_a","district":"","latitude":31.216111,"longitude":121.442932,"name":"复旦大学附属华山医院"},{"address":"汾阳路83号","category":"hospital.tertiary_a","district":"","latitude":31.209076,"longitude":121.453398,"name":"复旦大学附属眼耳鼻喉科医院"},{"address":"枫林路180号","category":"hospital.tertiary_a","district":"","latitude":31.197318,"longitude":121.454965,"name":"复旦大学附属中山医院"},{"address":"东安路270号","category":"hospital.tertiary_a","district":"","latitude":31.191166,"longitude":121.453236,"name":"复旦大学附属肿瘤医院"},{"address":"延安西路221号","category":"hospital.tertiary_a","district":"","latitude":31.218317,"longitude":121.441656,"name":"华东医院"},{"address":"高科西路1908号","category":"hospital.tertiary_a","district":"","latitude":31.186684,"longitude":121.532057,"name":"上海交通大学医学院附属第九人民医院"},{"address":"浦建路160号","category":"hospital.tertiary_a","district":"","latitude":31.206949,"longitude":121.522239,"name":"上海交通大学医学院附属仁济医院"},{"address":"瑞金二路197号","category":"hospital.tertiary_a","district":"","latitude":31.211761,"longitude":121.467617,"name":"上海交通大学医学院附属瑞金医院"},{"address":"东方路1678号","category":"hospital.tertiary_a","district":"","latitude":31.205738,"longitude":121.522661,"name":"上海交通大学医学院附属上海儿童医学中心"},{"address":"控江路1665号","category":"hospital.tertiary_a","district":"","latitude":31.27313,"longitude":121.517681,"name":"上海交通大学医学院附属新华医院"},{"address":"宜山路600号","category":"hospital.tertiary_a","district":"","latitude":31.178477,"longitude":121.422376,"name":"上海市第六人民医院"},{"address":"延长中路301号","category":"hospital.tertiary_a","district":"","latitude":31.272081,"longitude":121.453561,"name":"上海市第十人民医院"},{"address":"高科西路2699号","category":"hospital.tertiary_a","district":"","latitude":31.189245,"longitude":121.549943,"name":"上海市第一妇婴保健院"},{"address":"武进路85-86号","category":"hospital.tertiary_a","district":"","latitude":31.253401,"longitude":121.489433,"name":"上海市第一人民医院"},{"address":"即墨路150号","category":"hospital.tertiary_a","district":"","latitude":31.237613,"longitude":121.512287,"name":"上海市东方医院"},{"address":"泸定路355号","category":"hospital.tertiary_a","district":"","latitude":31.226745,"longitude":121.386483,"name":"上海市儿童医院"},{"address":"政民路507号","category":"hospital.tertiary_a","district":"","latitude":31.302544,"longitude":121.501899,"name":"上海市肺科医院"},{"address":"同心路921号","category":"hospital.tertiary_a","district":"","latitude":31.273513,"longitude":121.470288,"name":"上海市公共卫生临床中心"},{"address":"沪闵公路与瓶北路交叉口西北120米","category":"hospital.tertiary_a","district":"","latitude":31.055542,"longitude":121.405865,"name":"上海市精神卫生中心"},{"address":"苗圃路219号","category":"hospital.tertiary_a","district":"","latitude":31.241738,"longitude":121.546819,"name":"上海市浦东新区公利医院"},{"address":"新村路389号","category":"hospital.tertiary_a","district":"","latitude":31.266805,"longitude":121.431316,"name":"上海市同济医院"},{"address":"仙霞路1111号","category":"hospital.tertiary_a","district":"","latitude":31.208903,"longitude":121.377067,"name":"上海市同仁医院"},{"address":"淮海西路241-243号(虹桥路地铁站4号口步行260米)","category":"hospital.tertiary_a","district":"","latitude":31.197695,"longitude":121.426043,"name":"上海市胸科医院"},{"address":"华山路1961号上海交通大学医学院附属国际和平妇幼保健院","category":"hospital.tertiary_a","district":"","latitude":31.198999,"longitude":121.439689,"name":"中国福利会国际和平妇幼保健院"},{"address":"世纪大道1号(陆家嘴地铁站1号入口步行220米)","category":"landmark.city_landmark","district":"浦东新区","latitude":31.239703,"longitude":121.499718,"name":"东方明珠广播电视塔"},{"address":"世纪大道88号(陆家嘴地铁站8号口步行200米)","category":"landmark.city_landmark","district":"浦东新区","latitude":31.235284,"longitude":121.505611,"name":"金茂大厦"},{"address":"南京西路1686号(静安寺地铁站1号口步行60米)","category":"landmark.city_landmark","district":"静安区","latitude":31.223505,"longitude":121.44532,"name":"静安寺"},{"address":"浦东新区","category":"landmark.city_landmark","district":"浦东新区","latitude":31.237015,"longitude":121.5025,"name":"陆家嘴"},{"address":"南京东路558号","category":"landmark.city_landmark","district":"黄浦区","latitude":31.235983,"longitude":121.479494,"name":"南京路步行街"},{"address":"黄浦区","category":"landmark.city_landmark","district":"黄浦区","latitude":31.228818,"longitude":121.475233,"name":"人民广场"},{"address":"延安中路1000号(静安寺地铁站8号口步行340米)","category":"landmark.city_landmark","district":"静安区","latitude":31.224701,"longitude":121.45276,"name":"上海展览中心"},{"address":"东泰路126号","category":"landmark.city_landmark","district":"浦东新区","latitude":31.23351,"longitude":121.505366,"name":"上海中心大厦"},{"address":"中山东二路1号","category":"landmark.city_landmark","district":"黄浦区","latitude":31.233516,"longitude":121.492127,"name":"外滩"},{"address":"淮海中路1850号","category":"landmark.city_landmark","district":"徐汇区","latitude":31.20443,"longitude":121.438278,"name":"武康大楼"},{"address":"嘉松北路4355弄88号","category":"library.branch","district":"嘉定区","latitude":31.318303,"longitude":121.21877,"name":"安亭镇图书馆（方泰分馆）"},{"address":"嘉定区博园路4800号","category":"library.branch","district":"嘉定区","latitude":31.318303,"longitude":121.21877,"name":"安亭镇图书馆（黄渡分馆）"},{"address":"龙川北路777号","category":"library.branch","district":"徐汇区","latitude":31.151625,"longitude":121.438125,"name":"漕河泾街道图书馆 石龙分馆"},{"address":"平型关路1179号3楼","category":"library.branch","district":"静安区","latitude":31.152733,"longitude":121.112327,"name":"大宁路街道分馆（社区文化中心）"},{"address":"菊盛路99弄70号3号楼","category":"library.branch","district":"宝山区","latitude":31.35004,"longitude":121.370776,"name":"顾村镇图书馆（菊泉分馆）"},{"address":"富联路368号","category":"library.branch","district":"宝山区","latitude":31.356728,"longitude":121.410706,"name":"顾村镇图书馆（诗乡广场分馆）"},{"address":"潘广路1445号","category":"library.branch","district":"宝山区","latitude":31.364362,"longitude":121.366252,"name":"顾村镇图书馆（馨佳园分馆）"},{"address":"鹤韵路385号","category":"library.branch","district":"浦东新区","latitude":31.080598,"longitude":121.596593,"name":"航头镇图书馆鹤沙分馆"},{"address":"大连路1391号 综合馆大连路1375号 少儿馆","category":"library.branch","district":"虹口区","latitude":31.296647,"longitude":121.476054,"name":"虹口区图书馆和平分馆"},{"address":"临时服务点：大连西路199号欧阳路街道社区文化活动中心（北部）一楼","category":"library.branch","district":"虹口区","latitude":31.280494,"longitude":121.491628,"name":"虹口区图书馆曲阳分馆"},{"address":"富贵东道99号","category":"library.branch","district":"长宁区","latitude":31.19392,"longitude":121.406686,"name":"虹桥街道图书馆分馆（古北天空书苑）"},{"address":"华新镇凤强塘路1081号","category":"library.branch","district":"青浦区","latitude":31.243463,"longitude":121.230342,"name":"华新镇图书馆（凤溪分馆）"},{"address":"惠东路268号4号楼4楼","category":"library.branch","district":"浦东新区","latitude":31.04326,"longitude":121.76983,"name":"惠南镇图书馆东城分馆"},{"address":"清河路34弄40号","category":"library.branch","district":"嘉定区","latitude":31.385802,"longitude":121.247921,"name":"嘉定区图书馆清河路分馆"},{"address":"辽源西路143号2楼","category":"library.branch","district":"杨浦区","latitude":31.265968,"longitude":121.517598,"name":"江浦路街道图书馆少儿分馆"},{"address":"场中路4弄15号","category":"library.branch","district":"虹口区","latitude":31.305958,"longitude":121.484274,"name":"江湾镇街道图书馆分馆（逸仙会客厅）"},{"address":"金山卫镇钱圩建圩路20弄38号","category":"library.branch","district":"金山区","latitude":30.77495,"longitude":121.249626,"name":"金山卫镇图书馆钱圩分馆"},{"address":"浙江北路389号","category":"library.branch","district":"静安区","latitude":31.228935,"longitude":121.445129,"name":"静安区图书馆北站街道分馆"},{"address":"干新路7号","category":"library.branch","district":"金山区","latitude":30.832343,"longitude":121.183692,"name":"吕巷镇图书馆干巷分馆"},{"address":"美文路211号","category":"library.branch","district":"宝山区","latitude":31.405004,"longitude":121.36055,"name":"罗店镇图书馆（美兰西湖分馆）"},{"address":"塘西街366-370号","category":"library.branch","district":"宝山区","latitude":31.405004,"longitude":121.36055,"name":"罗店镇图书馆（塘西街分馆）"},{"address":"萧月路153号","category":"library.branch","district":"宝山区","latitude":31.417417,"longitude":121.281438,"name":"罗泾镇图书馆分馆"},{"address":"兴南路385号3楼","category":"library.branch","district":"闵行区","latitude":31.113825,"longitude":121.405425,"name":"梅陇镇图书馆晶城分馆"},{"address":"南翔镇仲秋路168号","category":"library.branch","district":"嘉定区","latitude":31.310772,"longitude":121.319911,"name":"南翔镇图书馆东社区分馆"},{"address":"浦江镇永寨路375号","category":"library.branch","district":"闵行区","latitude":31.033149,"longitude":121.512167,"name":"浦江镇图书馆永康分馆"},{"address":"长岛路1280弄70号3楼","category":"library.branch","district":"浦东新区","latitude":31.260491,"longitude":121.595,"name":"浦兴路街道图书馆金桥湾分馆"},{"address":"东书房路629弄8号","category":"library.branch","district":"浦东新区","latitude":31.12509,"longitude":121.499078,"name":"三林镇图书馆世博分馆"},{"address":"和融路51号","category":"library.branch","district":"浦东新区","latitude":31.12509,"longitude":121.499078,"name":"三林镇图书馆懿德分馆"},{"address":"成山路66号2号楼3楼","category":"library.branch","district":"浦东新区","latitude":31.049354,"longitude":121.745565,"name":"上钢图书馆综合体分馆"},{"address":"东方路38号","category":"library.branch","district":"浦东新区","latitude":31.241917,"longitude":121.518892,"name":"上海浦东图书馆陆家嘴分馆（东方路）"},{"address":"浦城路150号","category":"library.branch","district":"浦东新区","latitude":31.230785,"longitude":121.511085,"name":"上海浦东图书馆陆家嘴分馆（浦城路）"},{"address":"惠南镇人民西路326号","category":"library.branch","district":"浦东新区","latitude":31.049354,"longitude":121.745565,"name":"上海浦东图书馆南汇分馆"},{"address":"张杨路3680弄1号楼5-8楼","category":"library.branch","district":"浦东新区","latitude":31.255446,"longitude":121.581523,"name":"上海浦东图书馆少儿分馆"},{"address":"国定支路27号菜场旁边","category":"library.branch","district":"杨浦区","latitude":31.305351,"longitude":121.505735,"name":"五角场街道图书馆（国定支路分馆）"},{"address":"香花桥街道清河湾路1635弄1号4层","category":"library.branch","district":"青浦区","latitude":31.207176,"longitude":121.101901,"name":"香花桥街道图书馆（玉兰花园分馆）"},{"address":"徐泾镇尚鸿路858","category":"library.branch","district":"青浦区","latitude":31.176685,"longitude":121.238949,"name":"徐泾镇图书馆（北大居分馆）"},{"address":"长阳路1687号西2号楼1楼","category":"library.branch","district":"杨浦区","latitude":31.271831,"longitude":121.533684,"name":"杨浦区图书馆（平凉分馆）"},{"address":"嫩江路民星二村38号","category":"library.branch","district":"杨浦区","latitude":31.313973,"longitude":121.53608,"name":"杨浦区图书馆（少儿分馆）"},{"address":"孙建路480弄98号5号楼5楼","category":"library.branch","district":"浦东新区","latitude":31.180918,"longitude":121.634589,"name":"张江图书馆孙桥分馆"},{"address":"华科东路41号","category":"library.branch","district":"青浦区","latitude":31.158818,"longitude":121.157652,"name":"赵巷镇图书馆（新城一站分馆）"},{"address":"金沙江路2823弄2号","category":"library.branch","district":"嘉定区","latitude":31.252956,"longitude":121.357073,"name":"真新街道图书馆（新丰分馆）"},{"address":"朱泾镇新农贸易路55号","category":"library.branch","district":"金山区","latitude":30.899299,"longitude":121.166595,"name":"朱泾镇图书馆新农分馆"},{"address":"海江路600号","category":"library.district","district":"宝山区","latitude":31.395209,"longitude":121.490206,"name":"宝山区图书馆"},{"address":"城桥镇崇明大道7897号","category":"library.district","district":"崇明区","latitude":31.619172,"longitude":121.428424,"name":"崇明区图书馆"},{"address":"兰坪路158号","category":"library.district","district":"闵行区","latitude":31.001866,"longitude":121.419799,"name":"大零号湾图书馆"},{"address":"南桥镇解放东路889号","category":"library.district","district":"奉贤区","latitude":30.917061,"longitude":121.475603,"name":"奉贤区图书馆"},{"address":"沈梅东路800号","category":"library.district","district":"浦东新区","latitude":31.0928,"longitude":121.604522,"name":"傅雷图书馆"},{"address":"恒顺路280弄39号","category":"library.district","district":"金山区","latitude":31.395209,"longitude":121.490206,"name":"高新区图书馆"},{"address":"奉炮公路141弄49号3楼","category":"library.district","district":"奉贤区","latitude":30.829428,"longitude":121.526413,"name":"海湾旅游区图书馆"},{"address":"横沙乡新环路57号","category":"library.district","district":"崇明区","latitude":31.318998,"longitude":121.853798,"name":"横沙乡图书馆"},{"address":"水电路1412号","category":"library.district","district":"虹口区","latitude":31.296647,"longitude":121.476054,"name":"虹口区图书馆"},{"address":"柳埠路135弄25号二楼","category":"library.district","district":"浦东新区","latitude":31.261875,"longitude":121.583675,"name":"沪东社区图书馆"},{"address":"陕西南路235号","category":"library.district","district":"黄浦区","latitude":31.209047,"longitude":121.461927,"name":"黄浦区明复图书馆(原卢湾区图书馆)"},{"address":"福州路655号","category":"library.district","district":"黄浦区","latitude":31.232282,"longitude":121.47864,"name":"黄浦区图书馆"},{"address":"汇源路188号二号楼","category":"library.district","district":"嘉定区","latitude":31.418171,"longitude":121.207878,"name":"嘉定工业区图书馆"},{"address":"裕民南路1288号","category":"library.district","district":"嘉定区","latitude":31.350699,"longitude":121.263128,"name":"嘉定区图书馆"},{"address":"蒙山北路280号","category":"library.district","district":"金山区","latitude":30.741986,"longitude":121.339588,"name":"金山区图书馆"},{"address":"康定东路28号","category":"library.district","district":"静安区","latitude":31.312469,"longitude":121.46207,"name":"静安区少年儿童图书馆"},{"address":"天目中路2号","category":"library.district","district":"静安区","latitude":31.248381,"longitude":121.47382,"name":"静安区图书馆（天目中路）"},{"address":"闻喜路800号","category":"library.district","district":"静安区","latitude":31.308396,"longitude":121.450504,"name":"静安区图书馆（闻喜路）"},{"address":"新闸路1708号","category":"library.district","district":"静安区","latitude":31.228935,"longitude":121.445129,"name":"静安区图书馆（新闸路）"},{"address":"汾西路261弄24号","category":"library.district","district":"静安区","latitude":31.312469,"longitude":121.46207,"name":"静安区闸北少年儿童图书馆"},{"address":"菊园新区棋盘路1255号","category":"library.district","district":"嘉定区","latitude":31.397857,"longitude":121.250587,"name":"菊园新区图书馆"},{"address":"名都路85号","category":"library.district","district":"闵行区","latitude":31.10534,"longitude":121.388787,"name":"闵行区图书馆"},{"address":"共和新路1928号大宁国际商业广场12座2楼","category":"library.district","district":"静安区","latitude":31.274075,"longitude":121.451875,"name":"宁的书房"},{"address":"浦涛路252号","category":"library.district","district":"闵行区","latitude":31.049947,"longitude":121.540919,"name":"浦江图书馆"},{"address":"铜川路1278号","category":"library.district","district":"普陀区","latitude":31.251267,"longitude":121.396738,"name":"普陀区图书馆"},{"address":"青龙路60号","category":"library.district","district":"青浦区","latitude":31.148435,"longitude":121.13541,"name":"青浦区图书馆"},{"address":"青浦区巷业路259号2号楼","category":"library.district","district":"青浦区","latitude":31.157624,"longitude":121.198009,"name":"青溪书房·赵巷公园"},{"address":"人民南路6弄69号","category":"library.district","district":"松江区","latitude":31.000239,"longitude":121.229131,"name":"人文松江活动中心（松江区图书馆）"},{"address":"历城路75号","category":"library.district","district":"浦东新区","latitude":31.175815,"longitude":121.492774,"name":"上钢图书馆"},{"address":"前程路88号","category":"library.district","district":"浦东新区","latitude":31.192142,"longitude":121.54151,"name":"上海浦东图书馆"},{"address":"颛盛路745号一楼","category":"library.district","district":"闵行区","latitude":31.061375,"longitude":121.389025,"name":"莘庄工业区图书馆"},{"address":"泗泾镇城鸿路222弄","category":"library.district","district":"松江区","latitude":31.115499,"longitude":121.271933,"name":"泗泾新凯大居图书馆"},{"address":"泗凯路400号","category":"library.district","district":"松江区","latitude":31.115499,"longitude":121.271933,"name":"泗泾新凯图书馆"},{"address":"川黄路157号","category":"library.district","district":"浦东新区","latitude":31.192011,"longitude":121.70522,"name":"新川沙图书馆（成人馆）"},{"address":"新川路555号","category":"library.district","district":"浦东新区","latitude":31.191815,"longitude":121.695534,"name":"新川沙图书馆（少儿馆）"},{"address":"新村乡星村公路2128号","category":"library.district","district":"崇明区","latitude":31.830355,"longitude":121.331489,"name":"新村乡图书馆"},{"address":"漕溪北路158号","category":"library.district","district":"徐汇区","latitude":31.19043,"longitude":121.437082,"name":"徐汇区图书馆（徐家汇书院）"},{"address":"长海路366号","category":"library.district","district":"杨浦区","latitude":31.308783,"longitude":121.523315,"name":"杨浦区图书馆"},{"address":"博山路51弄60号","category":"library.district","district":"浦东新区","latitude":31.24439,"longitude":121.556996,"name":"洋泾社区图书馆"},{"address":"中科路2329号B座3楼","category":"library.district","district":"浦东新区","latitude":31.180918,"longitude":121.634589,"name":"张江图书馆"},{"address":"天山路356号","category":"library.district","district":"长宁区","latitude":31.21493,"longitude":121.388633,"name":"长宁区图书馆（天山馆）"},{"address":"仙霞路700弄41号","category":"library.district","district":"长宁区","latitude":31.205208,"longitude":121.385812,"name":"长宁区图书馆（仙霞馆）"},{"address":"愚园路1188号","category":"library.district","district":"长宁区","latitude":31.218996,"longitude":121.426804,"name":"长宁区图书馆（愚园馆）"},{"address":"静安区南京西路962号","category":"library.municipal","district":"上海市","latitude":31.229835,"longitude":121.457973,"name":"上海少年儿童图书馆（南西馆）"},{"address":"普陀区光复西路2500号","category":"library.municipal","district":"上海市","latitude":31.220883,"longitude":121.398286,"name":"上海少年儿童图书馆（长风馆）"},{"address":"浦东新区迎春路300号、合欢路300号","category":"library.municipal","district":"上海市","latitude":31.219971,"longitude":121.547154,"name":"上海图书馆（东馆）"},{"address":"徐汇区淮海中路1555号","category":"library.municipal","district":"上海市","latitude":31.207334,"longitude":121.444753,"name":"上海图书馆（淮海馆）"},{"address":"安亭镇墨玉路149号","category":"library.subdistrict_town","district":"嘉定区","latitude":31.296364,"longitude":121.164362,"name":"安亭镇图书馆"},{"address":"白鹤镇外青松公路2951号","category":"library.subdistrict_town","district":"青浦区","latitude":31.287982,"longitude":121.160162,"name":"白鹤镇图书馆"},{"address":"青赵公路6666弄86号","category":"library.subdistrict_town","district":"青浦区","latitude":31.251105,"longitude":121.084335,"name":"白鹤镇图书馆（赵屯分中心）"},{"address":"西藏南路1360号2楼","category":"library.subdistrict_town","district":"黄浦区","latitude":31.206934,"longitude":121.486796,"name":"半淞园路街道图书馆"},{"address":"宝昌路533号6楼","category":"library.subdistrict_town","district":"静安区","latitude":31.260193,"longitude":121.472765,"name":"宝山路街道图书馆"},{"address":"堡镇堡兴路85号","category":"library.subdistrict_town","district":"崇明区","latitude":31.536609,"longitude":121.616587,"name":"堡镇图书馆"},{"address":"陈春路101号3楼","category":"library.subdistrict_town","district":"浦东新区","latitude":31.173623,"longitude":121.555426,"name":"北蔡镇图书馆"},{"address":"通州路99号2楼","category":"library.subdistrict_town","district":"虹口区","latitude":31.267043,"longitude":121.500373,"name":"北外滩街道图书馆"},{"address":"新泾一村144号3楼","category":"library.subdistrict_town","district":"长宁区","latitude":31.218374,"longitude":121.369109,"name":"北新泾街道图书馆"},{"address":"山西北路108弄13号2楼（预计今年4月下旬开）","category":"library.subdistrict_town","district":"静安区","latitude":31.241902,"longitude":121.471366,"name":"北站街道图书馆（艺术图书馆）"},{"address":"长寿路999弄15号2楼","category":"library.subdistrict_town","district":"静安区","latitude":31.23044,"longitude":121.428404,"name":"曹家渡街道达安星之会所图书室"},{"address":"万航渡路676弄46号","category":"library.subdistrict_town","district":"静安区","latitude":31.226204,"longitude":121.431726,"name":"曹家渡街道图书馆"},{"address":"万航渡路767弄56号2号楼二楼","category":"library.subdistrict_town","district":"静安区","latitude":31.228365,"longitude":121.432043,"name":"曹家渡街道图书馆（少儿）"},{"address":"川沙路582号","category":"library.subdistrict_town","district":"浦东新区","latitude":31.274354,"longitude":121.670098,"name":"曹路镇图书馆"},{"address":"杏山路317号","category":"library.subdistrict_town","district":"普陀区","latitude":31.236342,"longitude":121.406049,"name":"曹杨新村街道图书馆"},{"address":"康健路135号二楼","category":"library.subdistrict_town","district":"徐汇区","latitude":31.165499,"longitude":121.425605,"name":"漕河泾街道图书馆"},{"address":"漕泾镇富漕路239号","category":"library.subdistrict_town","district":"金山区","latitude":30.741986,"longitude":121.339588,"name":"漕泾镇图书馆"},{"address":"车墩镇影视路28弄1号227室","category":"library.subdistrict_town","district":"松江区","latitude":31.013686,"longitude":121.314847,"name":"车墩镇图书馆"},{"address":"陈家镇裕国路388号","category":"library.subdistrict_town","district":"崇明区","latitude":31.500623,"longitude":121.804661,"name":"陈家镇图书馆"},{"address":"城桥镇大陈路8弄19号","category":"library.subdistrict_town","district":"崇明区","latitude":31.619172,"longitude":121.428424,"name":"城桥镇图书馆"},{"address":"哈密路1955号5楼","category":"library.subdistrict_town","district":"长宁区","latitude":31.194708,"longitude":121.368488,"name":"程家桥街道图书馆"},{"address":"蒙自路223号2楼、3楼","category":"library.subdistrict_town","district":"黄浦区","latitude":31.193975,"longitude":121.475975,"name":"打浦桥街道图书馆"},{"address":"沪太路2010号-1","category":"library.subdistrict_town","district":"宝山区","latitude":31.297694,"longitude":121.411947,"name":"大场镇图书馆"},{"address":"共和新路1700弄70号甲","category":"library.subdistrict_town","district":"静安区","latitude":31.260193,"longitude":121.472765,"name":"大宁路街道图书馆"},{"address":"平凉路1730号","category":"library.subdistrict_town","district":"杨浦区","latitude":31.267433,"longitude":121.542011,"name":"大桥街道图书馆"},{"address":"南团公路3330号","category":"library.subdistrict_town","district":"浦东新区","latitude":30.96306,"longitude":121.745336,"name":"大团镇图书馆"},{"address":"长阳路3066号","category":"library.subdistrict_town","district":"杨浦区","latitude":31.27824,"longitude":121.549218,"name":"定海路街道图书馆"},{"address":"东明路2616号4楼","category":"library.subdistrict_town","district":"浦东新区","latitude":31.146786,"longitude":121.522333,"name":"东明路街道图书馆"},{"address":"东平镇东冉路886号","category":"library.subdistrict_town","district":"崇明区","latitude":30.805686,"longitude":121.286198,"name":"东平镇图书馆"},{"address":"洞泾镇长兴路466号","category":"library.subdistrict_town","district":"松江区","latitude":31.083016,"longitude":121.271272,"name":"洞泾镇图书馆"},{"address":"北翠路1077号204室","category":"library.subdistrict_town","district":"松江区","latitude":31.036456,"longitude":121.216493,"name":"方松街道图书馆"},{"address":"枫泾镇枫丽路127号","category":"library.subdistrict_town","district":"金山区","latitude":30.8866,"longitude":121.015212,"name":"枫泾镇图书馆"},{"address":"临时服务点：双峰路400号枫林党群服务中心一楼","category":"library.subdistrict_town","district":"徐汇区","latitude":31.190862,"longitude":121.443109,"name":"枫林路街道图书馆"},{"address":"奉城镇奉海公路8号","category":"library.subdistrict_town","district":"奉贤区","latitude":30.915475,"longitude":121.659425,"name":"奉城镇图书馆"},{"address":"高州路155号3楼","category":"library.subdistrict_town","district":"奉贤区","latitude":30.917061,"longitude":121.475603,"name":"奉浦街道图书馆"},{"address":"延长西路400号","category":"library.subdistrict_town","district":"普陀区","latitude":31.261776,"longitude":121.436616,"name":"甘泉街道图书馆"},{"address":"港西镇三双公路1573号（镇政府内）","category":"library.subdistrict_town","district":"崇明区","latitude":31.619172,"longitude":121.428424,"name":"港西镇图书馆"},{"address":"港沿镇港沿公路1198号","category":"library.subdistrict_town","district":"崇明区","latitude":31.536609,"longitude":121.616587,"name":"港沿镇图书馆"},{"address":"光烁路39号","category":"library.subdistrict_town","district":"浦东新区","latitude":31.296384,"longitude":121.61148,"name":"高东镇图书馆"},{"address":"高境路371号5楼","category":"library.subdistrict_town","district":"宝山区","latitude":31.322625,"longitude":121.474437,"name":"高境镇图书馆"},{"address":"张杨北路5425号","category":"library.subdistrict_town","district":"浦东新区","latitude":31.319737,"longitude":121.540158,"name":"高桥镇图书馆"},{"address":"新行路340号4楼","category":"library.subdistrict_town","district":"浦东新区","latitude":31.296384,"longitude":121.61148,"name":"高行镇图书馆"},{"address":"延长中路755号2楼","category":"library.subdistrict_town","district":"静安区","latitude":31.260193,"longitude":121.472765,"name":"共和新路街道图书馆"},{"address":"平阳路256号","category":"library.subdistrict_town","district":"闵行区","latitude":31.142372,"longitude":121.405381,"name":"古美路街道图书馆（东馆）"},{"address":"合川路366号3楼（成人区）、4楼（少儿区）","category":"library.subdistrict_town","district":"闵行区","latitude":31.142372,"longitude":121.405381,"name":"古美路街道图书馆（西馆）"},{"address":"共富二路122号","category":"library.subdistrict_town","district":"宝山区","latitude":31.345846,"longitude":121.424901,"name":"顾村镇图书馆"},{"address":"谷阳北路2760号三楼","category":"library.subdistrict_town","district":"松江区","latitude":31.036456,"longitude":121.216493,"name":"广富林街道图书馆"},{"address":"恒业路300号","category":"library.subdistrict_town","district":"虹口区","latitude":31.266375,"longitude":121.474525,"name":"广中路街道图书馆"},{"address":"海湾镇星中路45号","category":"library.subdistrict_town","district":"奉贤区","latitude":30.857552,"longitude":121.569293,"name":"海湾镇图书馆"},{"address":"航鹤路388号文体楼二楼","category":"library.subdistrict_town","district":"浦东新区","latitude":31.049947,"longitude":121.540919,"name":"航头镇图书馆"},{"address":"东川公路7777号2号楼一楼","category":"library.subdistrict_town","district":"浦东新区","latitude":31.192011,"longitude":121.70522,"name":"合庆镇图书馆"},{"address":"全州路81号","category":"library.subdistrict_town","district":"徐汇区","latitude":31.166098,"longitude":121.407525,"name":"虹梅路街道图书馆"},{"address":"虹桥路1115弄19号","category":"library.subdistrict_town","district":"长宁区","latitude":31.197599,"longitude":121.410547,"name":"虹桥街道图书馆"},{"address":"虹桥镇万源路2800号","category":"library.subdistrict_town","district":"闵行区","latitude":31.1705,"longitude":121.369367,"name":"虹桥镇图书馆"},{"address":"乌鲁木齐中路164号","category":"library.subdistrict_town","district":"徐汇区","latitude":31.213799,"longitude":121.445039,"name":"湖南路街道图书馆"},{"address":"梅花路289号401室","category":"library.subdistrict_town","district":"浦东新区","latitude":31.208893,"longitude":121.543437,"name":"花木街道图书馆"},{"address":"华漕镇纪翟路550号","category":"library.subdistrict_town","district":"闵行区","latitude":31.210304,"longitude":121.289135,"name":"华漕镇图书馆"},{"address":"华泾镇华泾路505号","category":"library.subdistrict_town","district":"徐汇区","latitude":31.119385,"longitude":121.45398,"name":"华泾镇图书馆"},{"address":"嘉行公路3198号","category":"library.subdistrict_town","district":"嘉定区","latitude":31.475811,"longitude":121.283908,"name":"华亭镇图书馆"},{"address":"华新镇新府中路1868号","category":"library.subdistrict_town","district":"青浦区","latitude":31.243115,"longitude":121.230099,"name":"华新镇图书馆"},{"address":"安化路500号三楼","category":"library.subdistrict_town","district":"长宁区","latitude":31.215691,"longitude":121.420041,"name":"华阳路街道图书馆"},{"address":"马当路349号5楼","category":"library.subdistrict_town","district":"黄浦区","latitude":31.213942,"longitude":121.475594,"name":"淮海中路街道图书馆"},{"address":"川南奉公路6193号3楼","category":"library.subdistrict_town","district":"浦东新区","latitude":31.024441,"longitude":121.776347,"name":"惠南镇图书馆"},{"address":"嘉定镇街道清河路196号","category":"library.subdistrict_town","district":"嘉定区","latitude":31.381103,"longitude":121.24043,"name":"嘉定镇街道图书馆"},{"address":"瑞虹路400号4楼","category":"library.subdistrict_town","district":"虹口区","latitude":31.267043,"longitude":121.500373,"name":"嘉兴路街道图书馆"},{"address":"建设镇建设公路1259号","category":"library.subdistrict_town","district":"崇明区","latitude":31.619172,"longitude":121.428424,"name":"建设镇图书馆"},{"address":"昌平路710号2楼","category":"library.subdistrict_town","district":"静安区","latitude":31.234829,"longitude":121.442398,"name":"江宁路街道图书馆"},{"address":"许昌路1150号5楼","category":"library.subdistrict_town","district":"杨浦区","latitude":31.265968,"longitude":121.517598,"name":"江浦路街道图书馆"},{"address":"江桥镇海波路1020号","category":"library.subdistrict_town","district":"嘉定区","latitude":31.270283,"longitude":121.323361,"name":"江桥镇龙湖图书馆"},{"address":"江桥镇华江路129弄2号楼","category":"library.subdistrict_town","district":"嘉定区","latitude":31.252925,"longitude":121.342158,"name":"江桥镇图书馆"},{"address":"安西路45号","category":"library.subdistrict_town","district":"长宁区","latitude":31.219664,"longitude":121.425898,"name":"江苏路街道图书馆"},{"address":"凉城路2130号北楼3楼（少儿馆）、南楼7楼（成人馆）","category":"library.subdistrict_town","district":"虹口区","latitude":31.308225,"longitude":121.472031,"name":"江湾镇街道图书馆"},{"address":"奉贤区金海社区嘉园路254号","category":"library.subdistrict_town","district":"奉贤区","latitude":30.987875,"longitude":121.501575,"name":"金海街道图书馆"},{"address":"金汇镇中心路10号","category":"library.subdistrict_town","district":"奉贤区","latitude":30.987875,"longitude":121.501575,"name":"金汇镇图书馆"},{"address":"金高路1777号4楼","category":"library.subdistrict_town","district":"浦东新区","latitude":31.268277,"longitude":121.61019,"name":"金桥镇图书馆"},{"address":"金山卫镇古城路295号","category":"library.subdistrict_town","district":"金山区","latitude":30.741986,"longitude":121.339588,"name":"金山卫镇图书馆"},{"address":"云山路1080弄2号一楼","category":"library.subdistrict_town","district":"浦东新区","latitude":31.247897,"longitude":121.572575,"name":"金杨新村街道图书馆"},{"address":"金泽镇迎祥街33号","category":"library.subdistrict_town","district":"青浦区","latitude":31.035275,"longitude":120.922325,"name":"金泽镇图书馆"},{"address":"新闸路1855号3楼","category":"library.subdistrict_town","district":"静安区","latitude":31.228935,"longitude":121.445129,"name":"静安寺街道图书馆"},{"address":"滨亭路355弄1号","category":"library.subdistrict_town","district":"松江区","latitude":31.143842,"longitude":121.313778,"name":"九里亭街道图书馆"},{"address":"九亭镇易富路25号","category":"library.subdistrict_town","district":"松江区","latitude":31.116742,"longitude":121.332876,"name":"九亭镇图书馆"},{"address":"浦北路988号3楼","category":"library.subdistrict_town","district":"徐汇区","latitude":31.151902,"longitude":121.413131,"name":"康健新村街道图书馆"},{"address":"康沈路686号","category":"library.subdistrict_town","district":"浦东新区","latitude":31.134106,"longitude":121.572682,"name":"康桥镇图书馆"},{"address":"凤城二村19号","category":"library.subdistrict_town","district":"杨浦区","latitude":31.278382,"longitude":121.522413,"name":"控江路街道图书馆"},{"address":"廊下镇景钱路1708号","category":"library.subdistrict_town","district":"金山区","latitude":30.832343,"longitude":121.183692,"name":"廊下镇图书馆"},{"address":"建中路458号","category":"library.subdistrict_town","district":"浦东新区","latitude":30.968994,"longitude":121.819556,"name":"老港镇图书馆"},{"address":"中华路990号2楼、3楼","category":"library.subdistrict_town","district":"黄浦区","latitude":31.214587,"longitude":121.491019,"name":"老西门街道图书馆"},{"address":"练塘镇文化路85号","category":"library.subdistrict_town","district":"青浦区","latitude":31.026795,"longitude":121.141858,"name":"练塘镇图书馆"},{"address":"车站南路340号4楼","category":"library.subdistrict_town","district":"虹口区","latitude":31.295003,"longitude":121.475182,"name":"凉城新村街道图书馆"},{"address":"安业路76号南厅（暂时搬至该点位，仅阅览）","category":"library.subdistrict_town","district":"静安区","latitude":31.308396,"longitude":121.450504,"name":"临汾路街道图书馆"},{"address":"梅陇路415号","category":"library.subdistrict_town","district":"徐汇区","latitude":31.138181,"longitude":121.41901,"name":"凌云路街道图书馆"},{"address":"临时服务点：徐汇区龙水南路322号龙南邻里汇一楼","category":"library.subdistrict_town","district":"徐汇区","latitude":31.190862,"longitude":121.443109,"name":"龙华街道图书馆"},{"address":"乳山路153-155号","category":"library.subdistrict_town","district":"浦东新区","latitude":31.235174,"longitude":121.520635,"name":"陆家嘴街道图书馆"},{"address":"吕巷镇朱吕公路6858号","category":"library.subdistrict_town","district":"金山区","latitude":30.832343,"longitude":121.183692,"name":"吕巷镇图书馆"},{"address":"绿华镇嘉华路8号","category":"library.subdistrict_town","district":"崇明区","latitude":31.763637,"longitude":121.219483,"name":"绿华镇图书馆"},{"address":"美诺路131号","category":"library.subdistrict_town","district":"宝山区","latitude":31.405004,"longitude":121.36055,"name":"罗店镇图书馆"},{"address":"陈功路799号","category":"library.subdistrict_town","district":"宝山区","latitude":31.480781,"longitude":121.327943,"name":"罗泾镇图书馆"},{"address":"马陆镇宝安公路3322号","category":"library.subdistrict_town","district":"嘉定区","latitude":31.331344,"longitude":121.282482,"name":"马陆镇图书馆"},{"address":"马桥镇富卓路120号","category":"library.subdistrict_town","district":"闵行区","latitude":31.020636,"longitude":121.384444,"name":"马桥镇图书馆"},{"address":"泖港镇新宾路300号","category":"library.subdistrict_town","district":"松江区","latitude":30.899299,"longitude":121.166595,"name":"泖港镇图书馆"},{"address":"梅陇镇高兴路108号","category":"library.subdistrict_town","district":"闵行区","latitude":31.113825,"longitude":121.405425,"name":"梅陇镇图书馆"},{"address":"长江西路2697号","category":"library.subdistrict_town","district":"宝山区","latitude":31.3287,"longitude":121.428776,"name":"庙行镇图书馆"},{"address":"庙镇剧场路12号","category":"library.subdistrict_town","district":"崇明区","latitude":31.3287,"longitude":121.428776,"name":"庙镇图书馆"},{"address":"芦硕路298号2楼","category":"library.subdistrict_town","district":"浦东新区","latitude":30.882872,"longitude":121.917489,"name":"南汇新城镇图书馆（芦潮港馆）"},{"address":"古棕路211号5楼","category":"library.subdistrict_town","district":"浦东新区","latitude":30.882872,"longitude":121.917489,"name":"南汇新城镇图书馆（申港馆）"},{"address":"江阴路101号103室、201室、204室","category":"library.subdistrict_town","district":"黄浦区","latitude":31.229519,"longitude":121.468839,"name":"南京东路街道图书馆"},{"address":"延安中路602号","category":"library.subdistrict_town","district":"静安区","latitude":31.224193,"longitude":121.462689,"name":"南京西路街道少儿图书馆"},{"address":"升平街33号","category":"library.subdistrict_town","district":"静安区","latitude":31.225184,"longitude":121.461346,"name":"南京西路街道图书馆"},{"address":"南码头路400号","category":"library.subdistrict_town","district":"浦东新区","latitude":31.196001,"longitude":121.508545,"name":"南码头路街道图书馆"},{"address":"南桥镇南星路333号5楼","category":"library.subdistrict_town","district":"奉贤区","latitude":30.90861,"longitude":121.455885,"name":"南桥镇图书馆"},{"address":"南翔镇古猗园路737号","category":"library.subdistrict_town","district":"嘉定区","latitude":31.298011,"longitude":121.309983,"name":"南翔镇图书馆"},{"address":"鸿音路3156弄8号","category":"library.subdistrict_town","district":"浦东新区","latitude":30.904624,"longitude":121.817397,"name":"泥城镇图书馆"},{"address":"四平路621弄甲100号","category":"library.subdistrict_town","district":"虹口区","latitude":31.27225,"longitude":121.493836,"name":"欧阳路街道图书馆"},{"address":"共和新路4666弄城市新汇5号楼3楼","category":"library.subdistrict_town","district":"静安区","latitude":31.316821,"longitude":121.446498,"name":"彭浦新村街道图书馆"},{"address":"彭浦镇灵石路745号2楼","category":"library.subdistrict_town","district":"静安区","latitude":31.282951,"longitude":121.438912,"name":"彭浦镇图书馆"},{"address":"怀德路399号","category":"library.subdistrict_town","district":"杨浦区","latitude":31.25609,"longitude":121.52614,"name":"平凉路街道图书馆"},{"address":"江桦路651号","category":"library.subdistrict_town","district":"闵行区","latitude":31.101073,"longitude":121.485308,"name":"浦锦街道图书馆"},{"address":"博兴路1473号204","category":"library.subdistrict_town","district":"浦东新区","latitude":31.271731,"longitude":121.601251,"name":"浦兴路街道图书馆"},{"address":"七宝镇沪松公路450号4楼","category":"library.subdistrict_town","district":"闵行区","latitude":31.152594,"longitude":121.343313,"name":"七宝镇图书馆"},{"address":"青村镇南明路58号","category":"library.subdistrict_town","district":"奉贤区","latitude":30.927651,"longitude":121.575571,"name":"青村镇图书馆"},{"address":"中山北一路998号3楼","category":"library.subdistrict_town","district":"虹口区","latitude":31.27225,"longitude":121.493836,"name":"曲阳路街道图书馆"},{"address":"陕西南路245号4楼","category":"library.subdistrict_town","district":"黄浦区","latitude":31.213942,"longitude":121.475594,"name":"瑞金二路街道图书馆"},{"address":"三林路338号","category":"library.subdistrict_town","district":"浦东新区","latitude":31.138077,"longitude":121.498209,"name":"三林镇图书馆"},{"address":"三星镇宏海公路4291号","category":"library.subdistrict_town","district":"崇明区","latitude":31.818787,"longitude":121.298449,"name":"三星镇图书馆"},{"address":"龙湾路66弄11号201室","category":"library.subdistrict_town","district":"金山区","latitude":31.38275,"longitude":121.429263,"name":"山阳镇海璟图书馆"},{"address":"山阳镇体育路53号","category":"library.subdistrict_town","district":"金山区","latitude":30.741986,"longitude":121.339588,"name":"山阳镇图书馆"},{"address":"贡嘎山路200号佘北党群服务中心106室","category":"library.subdistrict_town","district":"松江区","latitude":31.112919,"longitude":121.176896,"name":"佘山镇佘北图书馆"},{"address":"佘山镇外青松公路8888弄1号","category":"library.subdistrict_town","district":"松江区","latitude":31.112919,"longitude":121.176896,"name":"佘山镇图书馆"},{"address":"莘庄镇龙茗路128号2楼","category":"library.subdistrict_town","district":"闵行区","latitude":31.107015,"longitude":121.372624,"name":"莘庄镇图书馆"},{"address":"石湖荡镇育新路333号2楼","category":"library.subdistrict_town","district":"松江区","latitude":31.007325,"longitude":121.189925,"name":"石湖荡镇图书馆"},{"address":"石化街道象州路238号","category":"library.subdistrict_town","district":"金山区","latitude":30.741986,"longitude":121.339588,"name":"石化街道图书馆"},{"address":"康定东路85号","category":"library.subdistrict_town","district":"静安区","latitude":31.237269,"longitude":121.456156,"name":"石门二路街道图书馆"},{"address":"宁强路33号","category":"library.subdistrict_town","district":"普陀区","latitude":31.261776,"longitude":121.436616,"name":"石泉路街道图书馆"},{"address":"老芦公路861号","category":"library.subdistrict_town","district":"浦东新区","latitude":30.936443,"longitude":121.866579,"name":"书院镇图书馆"},{"address":"竖新镇团城公路1918号","category":"library.subdistrict_town","district":"崇明区","latitude":31.536609,"longitude":121.616587,"name":"竖新镇图书馆"},{"address":"吴淞路669号3楼","category":"library.subdistrict_town","district":"虹口区","latitude":31.254417,"longitude":121.486025,"name":"四川北路街道图书馆"},{"address":"抚顺路360号","category":"library.subdistrict_town","district":"杨浦区","latitude":31.278613,"longitude":121.510604,"name":"四平路街道图书馆"},{"address":"四团镇新四平公路2089号","category":"library.subdistrict_town","district":"奉贤区","latitude":30.936866,"longitude":121.728547,"name":"四团镇图书馆"},{"address":"泗泾镇鼓浪路588号","category":"library.subdistrict_town","district":"松江区","latitude":31.115499,"longitude":121.271933,"name":"泗泾镇图书馆"},{"address":"淞发路578号","category":"library.subdistrict_town","district":"宝山区","latitude":31.322625,"longitude":121.474437,"name":"淞南镇图书馆"},{"address":"顾唐路3150号1楼","category":"library.subdistrict_town","district":"浦东新区","latitude":31.207084,"longitude":121.669233,"name":"唐镇图书馆"},{"address":"宏雅路8号2楼","category":"library.subdistrict_town","district":"浦东新区","latitude":31.207084,"longitude":121.669233,"name":"唐镇图书馆（王港分中心）"},{"address":"蓝村路86号","category":"library.subdistrict_town","district":"浦东新区","latitude":31.192142,"longitude":121.54151,"name":"塘桥街道图书馆"},{"address":"桃浦镇红棉路188号","category":"library.subdistrict_town","district":"普陀区","latitude":31.280734,"longitude":121.350807,"name":"桃浦镇图书馆"},{"address":"沪太路150号2楼","category":"library.subdistrict_town","district":"静安区","latitude":31.225184,"longitude":121.461346,"name":"天目西路街道图书馆"},{"address":"临时服务点：岳阳路77弄20号二楼","category":"library.subdistrict_town","district":"徐汇区","latitude":31.215691,"longitude":121.420041,"name":"天平路街道图书馆"},{"address":"天山四村122号","category":"library.subdistrict_town","district":"长宁区","latitude":31.219664,"longitude":121.425898,"name":"天山路街道图书馆"},{"address":"田林东路588号","category":"library.subdistrict_town","district":"徐汇区","latitude":31.172509,"longitude":121.424829,"name":"田林街道图书馆"},{"address":"亭林镇亭升路550弄33号","category":"library.subdistrict_town","district":"金山区","latitude":30.889008,"longitude":121.318677,"name":"亭林镇图书馆"},{"address":"头桥中路208号3楼","category":"library.subdistrict_town","district":"奉贤区","latitude":30.915475,"longitude":121.659425,"name":"头桥街道图书馆"},{"address":"外冈镇中泉路76号","category":"library.subdistrict_town","district":"嘉定区","latitude":31.364117,"longitude":121.156258,"name":"外冈镇图书馆"},{"address":"河南中路578号3楼、4楼","category":"library.subdistrict_town","district":"黄浦区","latitude":31.240299,"longitude":121.484162,"name":"外滩街道图书馆"},{"address":"真金路51号3楼","category":"library.subdistrict_town","district":"普陀区","latitude":31.261776,"longitude":121.436616,"name":"万里街道图书馆"},{"address":"万祥路95号","category":"library.subdistrict_town","district":"浦东新区","latitude":30.968994,"longitude":121.819556,"name":"万祥镇图书馆"},{"address":"南泉路269号2楼","category":"library.subdistrict_town","district":"浦东新区","latitude":31.221434,"longitude":121.522045,"name":"潍坊街道图书馆"},{"address":"尚义路39弄3号楼401室（宝龙广场）","category":"library.subdistrict_town","district":"闵行区","latitude":31.043241,"longitude":121.467454,"name":"吴泾镇图书馆"},{"address":"淞浦路492号","category":"library.subdistrict_town","district":"宝山区","latitude":31.36965,"longitude":121.496142,"name":"吴淞街道图书馆"},{"address":"政化路257号5楼","category":"library.subdistrict_town","district":"杨浦区","latitude":31.309438,"longitude":121.515892,"name":"五角场街道图书馆"},{"address":"龙华东路600号215室","category":"library.subdistrict_town","district":"黄浦区","latitude":31.193975,"longitude":121.475975,"name":"五里桥街道图书馆"},{"address":"奉贤区扶兰路51号201","category":"library.subdistrict_town","district":"奉贤区","latitude":31.001866,"longitude":121.419799,"name":"西渡街道图书馆"},{"address":"青浦区青昆路100号","category":"library.subdistrict_town","district":"青浦区","latitude":31.148435,"longitude":121.13541,"name":"夏阳街道图书馆"},{"address":"仙霞路435弄5号","category":"library.subdistrict_town","district":"长宁区","latitude":31.218374,"longitude":121.369109,"name":"仙霞新村街道图书馆"},{"address":"青浦区新胜路580号","category":"library.subdistrict_town","district":"青浦区","latitude":31.207176,"longitude":121.101901,"name":"香花桥街道图书馆"},{"address":"向化镇陈仿公路4927号","category":"library.subdistrict_town","district":"崇明区","latitude":31.500623,"longitude":121.804661,"name":"向化镇图书馆"},{"address":"黄家路88弄10号二楼","category":"library.subdistrict_town","district":"黄浦区","latitude":31.214587,"longitude":121.491019,"name":"小东门街道图书馆"},{"address":"小昆山镇文翔路6201号1楼","category":"library.subdistrict_town","district":"松江区","latitude":31.026795,"longitude":121.141858,"name":"小昆山镇图书馆"},{"address":"大木桥路461号二楼","category":"library.subdistrict_town","district":"徐汇区","latitude":31.195629,"longitude":121.463041,"name":"斜土路街道图书馆"},{"address":"新浜镇新颖路1031号205室","category":"library.subdistrict_town","district":"松江区","latitude":30.8866,"longitude":121.015212,"name":"新浜镇图书馆"},{"address":"新环东路276号","category":"library.subdistrict_town","district":"浦东新区","latitude":31.024689,"longitude":121.653574,"name":"新场镇图书馆"},{"address":"仓场路335号3楼","category":"library.subdistrict_town","district":"嘉定区","latitude":31.381103,"longitude":121.24043,"name":"新成路街道图书馆"},{"address":"新海镇北沿公路3366号","category":"library.subdistrict_town","district":"崇明区","latitude":31.763637,"longitude":121.219483,"name":"新海镇图书馆"},{"address":"新河镇新开河路877号","category":"library.subdistrict_town","district":"崇明区","latitude":31.58287,"longitude":121.516329,"name":"新河镇图书馆"},{"address":"宁虹路1122号A栋","category":"library.subdistrict_town","district":"闵行区","latitude":31.209546,"longitude":121.310031,"name":"新虹街道图书馆"},{"address":"法华镇路453号3楼","category":"library.subdistrict_town","district":"长宁区","latitude":31.204418,"longitude":121.426913,"name":"新华路街道图书馆"},{"address":"国秀路700号","category":"library.subdistrict_town","district":"杨浦区","latitude":31.334159,"longitude":121.510624,"name":"新江湾城街道图书馆"},{"address":"哈密路1358号4楼","category":"library.subdistrict_town","district":"长宁区","latitude":31.218374,"longitude":121.369109,"name":"新泾镇图书馆"},{"address":"新桥镇新站路460号","category":"library.subdistrict_town","district":"松江区","latitude":31.083016,"longitude":121.271272,"name":"新桥镇图书馆"},{"address":"南丹东路109号","category":"library.subdistrict_town","district":"徐汇区","latitude":31.190862,"longitude":121.443109,"name":"徐家汇街道图书馆"},{"address":"徐泾镇诚爱路58号","category":"library.subdistrict_town","district":"青浦区","latitude":31.175458,"longitude":121.275884,"name":"徐泾镇图书馆"},{"address":"徐行镇新建一路1568号","category":"library.subdistrict_town","district":"嘉定区","latitude":31.417417,"longitude":121.281438,"name":"徐行镇图书馆"},{"address":"下盐路3824号","category":"library.subdistrict_town","district":"浦东新区","latitude":31.024689,"longitude":121.653574,"name":"宣桥镇图书馆"},{"address":"靖宇东路267号地下一楼","category":"library.subdistrict_town","district":"杨浦区","latitude":31.288902,"longitude":121.536593,"name":"延吉新村街道图书馆"},{"address":"松兰路826号","category":"library.subdistrict_town","district":"宝山区","latitude":31.378792,"longitude":121.446589,"name":"杨行镇图书馆"},{"address":"叶榭镇张泽滟东路84号","category":"library.subdistrict_town","district":"松江区","latitude":31.013686,"longitude":121.314847,"name":"叶榭镇图书馆"},{"address":"华阴路200号2楼","category":"library.subdistrict_town","district":"普陀区","latitude":31.259225,"longitude":121.442375,"name":"宜川路街道图书馆"},{"address":"市光三村164号","category":"library.subdistrict_town","district":"杨浦区","latitude":31.319737,"longitude":121.540158,"name":"殷行街道图书馆"},{"address":"青浦区海盈路48号","category":"library.subdistrict_town","district":"青浦区","latitude":31.152687,"longitude":121.112412,"name":"盈浦街道图书馆"},{"address":"仓华路269弄1-4号永丰街道社区党群服务中心2楼","category":"library.subdistrict_town","district":"松江区","latitude":31.007325,"longitude":121.189925,"name":"永丰街道图书馆"},{"address":"同济路990号（益友空间党群服务中心二楼）","category":"library.subdistrict_town","district":"宝山区","latitude":31.402925,"longitude":121.476225,"name":"友谊路街道图书馆"},{"address":"傅家街65号4楼","category":"library.subdistrict_town","district":"黄浦区","latitude":31.240299,"longitude":121.484162,"name":"豫园街道图书馆"},{"address":"龙镇路88号","category":"library.subdistrict_town","district":"宝山区","latitude":31.450175,"longitude":121.400625,"name":"月浦镇图书馆（龙镇路馆）"},{"address":"蕰川路4051号","category":"library.subdistrict_town","district":"宝山区","latitude":31.417446,"longitude":121.419645,"name":"月浦镇图书馆（马泾桥馆）"},{"address":"庆安路51弄6号楼","category":"library.subdistrict_town","district":"宝山区","latitude":31.450175,"longitude":121.400625,"name":"月浦镇图书馆（庆安路馆）"},{"address":"盛桥三村48号","category":"library.subdistrict_town","district":"宝山区","latitude":31.450175,"longitude":121.400625,"name":"月浦镇图书馆（盛桥馆）"},{"address":"人民北路171弄30号4楼","category":"library.subdistrict_town","district":"松江区","latitude":31.036456,"longitude":121.216493,"name":"岳阳街道图书馆"},{"address":"一二八纪念路728弄58号2号楼","category":"library.subdistrict_town","district":"宝山区","latitude":31.324297,"longitude":121.450019,"name":"张庙街道图书馆"},{"address":"张堰镇东贤路961号","category":"library.subdistrict_town","district":"金山区","latitude":30.805686,"longitude":121.286198,"name":"张堰镇图书馆"},{"address":"延吉东路105号四楼","category":"library.subdistrict_town","district":"杨浦区","latitude":31.29492,"longitude":121.543693,"name":"长白新村街道图书馆"},{"address":"枣阳路251弄100号","category":"library.subdistrict_town","district":"普陀区","latitude":31.234806,"longitude":121.39908,"name":"长风新村街道图书馆"},{"address":"民京路823号甲","category":"library.subdistrict_town","district":"杨浦区","latitude":31.321775,"longitude":121.522125,"name":"长海路街道图书馆（市光路馆）"},{"address":"翔殷路505弄3号","category":"library.subdistrict_town","district":"杨浦区","latitude":31.305874,"longitude":121.535729,"name":"长海路街道图书馆（翔殷路馆）"},{"address":"政府路78号","category":"library.subdistrict_town","district":"杨浦区","latitude":31.309438,"longitude":121.515892,"name":"长海路街道图书馆（政府路馆）"},{"address":"罗香路237号","category":"library.subdistrict_town","district":"徐汇区","latitude":31.13434,"longitude":121.43671,"name":"长桥街道图书馆"},{"address":"长寿路505弄6号3楼","category":"library.subdistrict_town","district":"普陀区","latitude":31.261776,"longitude":121.436616,"name":"长寿路街道图书馆"},{"address":"海舸路465号","category":"library.subdistrict_town","district":"崇明区","latitude":31.388519,"longitude":121.702711,"name":"长兴镇图书馆"},{"address":"梅川路1255号北4楼 成人馆梅川路1255号南1楼 少儿馆","category":"library.subdistrict_town","district":"普陀区","latitude":31.241514,"longitude":121.382672,"name":"长征镇图书馆"},{"address":"赵巷镇赵华路507号","category":"library.subdistrict_town","district":"青浦区","latitude":31.151067,"longitude":121.196894,"name":"赵巷镇图书馆"},{"address":"柘林镇新塘路286弄柘邻坊四楼","category":"library.subdistrict_town","district":"奉贤区","latitude":30.870375,"longitude":121.461725,"name":"柘林镇图书馆"},{"address":"兰溪路968号3楼","category":"library.subdistrict_town","district":"普陀区","latitude":31.261776,"longitude":121.436616,"name":"真如镇街道图书馆"},{"address":"新郁路755弄55号","category":"library.subdistrict_town","district":"嘉定区","latitude":31.252956,"longitude":121.357073,"name":"真新街道图书馆"},{"address":"芷江西路151号3楼","category":"library.subdistrict_town","district":"静安区","latitude":31.258357,"longitude":121.464557,"name":"芷江西路街道图书馆"},{"address":"中山街道茸梅路200号中山社区文化中心2楼","category":"library.subdistrict_town","district":"松江区","latitude":31.030169,"longitude":121.247259,"name":"中山街道图书馆"},{"address":"中兴镇兴工路57号","category":"library.subdistrict_town","district":"崇明区","latitude":31.500623,"longitude":121.804661,"name":"中兴镇图书馆"},{"address":"重固镇福贸路260号","category":"library.subdistrict_town","district":"青浦区","latitude":31.195278,"longitude":121.191316,"name":"重固镇图书馆"},{"address":"齐河路508号2楼","category":"library.subdistrict_town","district":"浦东新区","latitude":31.180462,"longitude":121.508837,"name":"周家渡街道图书馆"},{"address":"玉屏南路560弄78号3楼","category":"library.subdistrict_town","district":"长宁区","latitude":31.215175,"longitude":121.402825,"name":"周家桥街道图书馆"},{"address":"周东路266号","category":"library.subdistrict_town","district":"浦东新区","latitude":31.0928,"longitude":121.604522,"name":"周浦镇图书馆"},{"address":"朱家角镇沙家埭路28号(市民中心)","category":"library.subdistrict_town","district":"青浦区","latitude":31.103116,"longitude":121.046207,"name":"朱家角镇图书馆"},{"address":"朱泾镇人民路360号","category":"library.subdistrict_town","district":"金山区","latitude":30.899299,"longitude":121.166595,"name":"朱泾镇图书馆"},{"address":"航亭环路158号","category":"library.subdistrict_town","district":"浦东新区","latitude":31.106573,"longitude":121.757946,"name":"祝桥镇图书馆"},{"address":"都市路2699号一楼","category":"library.subdistrict_town","district":"闵行区","latitude":31.069816,"longitude":121.404909,"name":"颛桥镇图书馆"},{"address":"奉贤区庄行镇腾庄路6号","category":"library.subdistrict_town","district":"奉贤区","latitude":30.90861,"longitude":121.455885,"name":"庄行镇图书馆"},{"address":"北沿公路2188号","category":"park.major_city_park","district":"崇明区","latitude":31.683752,"longitude":121.480857,"name":"东平国家森林公园"},{"address":"复兴中路516号","category":"park.major_city_park","district":"黄浦区","latitude":31.21698,"longitude":121.469115,"name":"复兴公园"},{"address":"高桥镇凌桥高沙滩3号","category":"park.major_city_park","district":"浦东新区","latitude":31.383134,"longitude":121.528136,"name":"上海滨江森林公园"},{"address":"辰花路3888号","category":"park.major_city_park","district":"松江区","latitude":31.075983,"longitude":121.182514,"name":"上海辰山植物园"},{"address":"军工路2000号","category":"park.major_city_park","district":"杨浦区","latitude":31.318956,"longitude":121.551787,"name":"上海共青森林公园"},{"address":"沪太路4788号","category":"park.major_city_park","district":"宝山区","latitude":31.339253,"longitude":121.368165,"name":"上海顾村公园"},{"address":"随塘河路1677号","category":"park.major_city_park","district":"奉贤区","latitude":30.861518,"longitude":121.690609,"name":"上海海湾国家森林公园"},{"address":"吴中路2019号","category":"park.major_city_park","district":"闵行区","latitude":31.164728,"longitude":121.360524,"name":"上海闵行文化公园"},{"address":"外青松公路9258号","category":"park.major_city_park","district":"松江区","latitude":31.09444,"longitude":121.196565,"name":"上海佘山国家森林公园"},{"address":"锦绣路1001号","category":"park.major_city_park","district":"浦东新区","latitude":31.215725,"longitude":121.552563,"name":"上海世纪公园"},{"address":"大渡河路189号","category":"park.major_city_park","district":"普陀区","latitude":31.224607,"longitude":121.400804,"name":"上海长风公园"},{"address":"龙吴路1111号","category":"park.major_city_park","district":"徐汇区","latitude":31.147478,"longitude":121.444271,"name":"上海植物园"},